field_1,縣市,鄉鎮市區,房屋曾出租過,月租金,需要管理費？,月管理費,提供車位？,每坪租金（含管理費與停車費）,建築類型,物件類型,自報頂加？,所在樓層,建物樓高,距頂樓層數,坪數,額外費用_電費？,額外費用_水費？,額外費用_瓦斯？,額外費用_網路？,額外費用_第四台？,附近有_學校？,附近有_公園？,附近有_百貨公司？,附近有_超商？,附近有_傳統市場？,附近有_夜市？,附近有_醫療機構？,有身份限制？,有性別限制？,性別限制,可炊？,可寵？,有產權登記？,刊登者類型,提供家具_床？,提供家具_桌子？,提供家具_椅子？,提供家具_電視？,提供家具_熱水器？,提供家具_冷氣？,提供家具_沙發？,提供家具_洗衣機？,提供家具_衣櫃？,提供家具_冰箱？,提供家具_網路？,提供家具_第四台？,提供家具_天然瓦斯？,緯度,經度,VILLCODE,VILLNAME
"12",臺南市,臺南市北區,"1","5000",F,"0",F,1000,透天,獨立套房,F,"3","3","0",5,T,F,T,F,F,T,T,F,T,F,F,T,F,F,不限,F,F,T,"0",T,T,T,T,T,T,F,T,T,T,T,T,F,23.004762,120.22018,"67000340008",仁愛里
"48",臺南市,臺南市永康區,"1","20000",F,"0",T,666.667,電梯大樓,整層住家,F,"11","18","7",30,T,T,T,T,T,T,T,T,T,T,T,T,T,F,不限,T,F,T,"1",T,T,T,T,T,T,T,T,T,T,F,F,T,22.9984159,120.2333069,"67000320027",莊敬里
"53",臺南市,臺南市安平區,"2","8500",T,"850",F,935,電梯大樓,獨立套房,F,"7","13","6",10,T,T,T,F,F,T,T,F,T,T,T,T,T,F,不限,F,F,T,"0",T,T,T,T,T,T,T,T,T,T,T,T,F,22.9974097,120.1818466,"67000360005",建平里
"89",臺南市,臺南市東區,"0","7500",F,"0",F,750,透天,獨立套房,F,"4","5","1",10,F,F,F,F,F,T,F,T,T,F,F,T,T,T,限女,F,F,F,"0",T,T,T,T,T,T,F,T,T,T,T,T,T,22.9892171,120.2169491,"67000320021",圍下里
"110",臺南市,臺南市永康區,"1","5500",F,"0",F,1100,透天,獨立套房,F,"2","2","0",5,T,F,T,F,T,T,T,F,T,F,F,T,T,F,不限,F,T,T,"0",T,T,T,T,T,T,F,T,T,T,T,F,F,23.0162837,120.2234527,"67000340001",開元里
"171",臺南市,臺南市東區,"1","3200",F,"0",T,640,公寓,獨立套房,F,"3","5","2",5,T,T,T,T,T,T,T,F,T,T,T,T,T,F,不限,F,F,T,"0",T,T,T,F,T,T,F,F,T,T,F,F,F,22.9872369,120.2219081,"67000320011",東安里
"178",臺南市,臺南市北區,"1","4000",F,"0",F,1000,電梯大樓,分租套房,F,"5","12","7",4,T,T,T,F,F,T,T,T,T,T,F,T,F,F,不限,F,F,T,"0",T,T,T,T,T,T,F,T,T,T,T,T,F,23.0110719,120.2244498,"67000340038",元寶里
"242",臺南市,臺南市東區,"1","4800",F,"0",F,960,電梯大樓,獨立套房,F,"2","5","3",5,T,T,T,F,F,T,T,T,T,F,T,T,T,F,不限,T,F,T,"1",T,T,T,T,T,T,F,T,T,T,T,T,F,22.9909501,120.223326,"67000320010",中西里
"337",臺南市,臺南市永康區,"1","11500",F,"0",T,958.333,電梯大樓,獨立套房,F,"10","13","3",12,T,T,T,F,F,T,T,F,T,T,T,T,T,F,不限,T,F,T,"1",T,T,T,T,T,T,T,T,T,T,T,T,F,23.0378534,120.2444424,"67000310010",塩行里
"346",臺南市,臺南市安平區,"1","36000",T,"3500",T,987.5,電梯大樓,整層住家,F,"10","21","11",40,T,T,T,T,T,T,T,T,T,T,T,T,T,F,不限,T,F,T,"1",T,T,T,T,T,T,T,T,T,T,F,F,T,22.987948,120.1777053,"67000360010",國平里
"372",臺南市,臺南市安平區,"1","32000",F,"0",T,941.176,電梯大樓,整層住家,F,"14","20","6",34,T,T,T,T,T,T,T,T,T,T,T,T,T,F,不限,T,F,F,"1",T,T,T,T,T,T,T,T,T,T,F,F,F,22.9851433,120.1707675,"67000360010",國平里
"398",臺南市,臺南市東區,"0","8500",F,"0",F,1103.9,電梯大樓,獨立套房,F,"4","5","1",7.7,T,T,T,F,T,T,T,F,T,T,T,F,T,F,不限,F,F,T,"0",T,T,T,F,T,T,F,T,T,T,T,F,F,22.9811167,120.2213547,"67000320039",德光里
"551",臺南市,臺南市永康區,"1","29000",F,"0",T,670.52,電梯大樓,整層住家,F,"15","19","4",43.25,T,T,T,T,T,T,T,T,T,T,F,T,F,F,不限,T,F,T,"1",T,T,T,T,T,T,T,T,T,T,F,F,T,22.9983485,120.2343655,"67000320027",莊敬里
"554",臺南市,臺南市永康區,"0","26000",F,"0",T,601.156,電梯大樓,整層住家,F,"15","19","4",43.25,T,T,T,T,T,T,T,T,T,T,T,T,T,F,不限,T,F,T,"1",T,T,T,T,T,T,T,T,T,T,F,F,T,22.9983913,120.2332823,"67000320027",莊敬里
"581",臺南市,臺南市東區,"1","40000",F,"0",T,571.429,透天,整層住家,F,"0","5","5",70,T,T,T,T,T,T,T,T,T,T,T,T,T,F,不限,T,T,T,"1",T,T,T,T,T,T,T,T,T,T,F,F,T,22.9832175,120.2440605,"67000320045",文聖里
"654",臺南市,臺南市中西區,"1","11500",F,"0",F,884.615,電梯大樓,獨立套房,F,"4","6","2",13,T,T,T,F,F,T,F,T,T,T,F,T,T,F,不限,T,F,T,"1",T,T,T,T,T,T,T,T,T,T,T,T,F,22.9939102,120.2107852,"67000370039",城隍里
"690",臺南市,臺南市東區,"1","4500",F,"0",F,642.857,透天,獨立套房,F,"3","4","1",7,T,F,T,F,F,T,T,T,T,T,T,T,T,T,限女,F,F,F,"0",T,T,T,T,T,T,F,T,T,T,T,T,F,22.9590395,120.2289554,"67000270012",成功里
"705",臺南市,臺南市中西區,"1","5000",F,"0",F,1000,透天,獨立套房,F,"3","3","0",5,T,F,T,F,T,T,T,T,T,T,T,T,T,T,限女,F,F,F,"0",T,T,T,T,T,T,F,T,T,T,T,T,F,23.0040711,120.1923079,"67000370025",光賢里
"714",臺南市,臺南市東區,"1","10000",T,"550",F,1318.75,電梯大樓,獨立套房,F,"19","22","3",8,T,T,T,T,T,T,T,T,T,T,T,T,T,F,不限,T,F,T,"2",T,F,F,T,F,T,T,T,T,T,F,F,F,22.9832845,120.2161384,"67000320005",泉南里
"750",臺南市,臺南市永康區,"1","30000",F,"0",F,526.778,透天,整層住家,F,"0","4","4",57,T,T,T,T,T,T,T,F,T,T,F,F,T,F,不限,T,F,T,"1",T,T,T,F,T,T,T,F,T,F,F,F,F,23.0377978,120.2623662,"67000310007",烏竹里
"762",臺南市,臺南市東區,"2","6000",F,"0",F,879.765,公寓,獨立套房,F,"3","3","0",6.82,T,T,T,T,T,T,T,T,T,T,T,T,F,F,不限,F,F,T,"2",T,T,T,T,T,T,F,T,T,T,F,F,F,22.9909482,120.2159497,"67000320021",圍下里
"807",臺南市,臺南市北區,"2","6500",F,"0",T,812.5,透天,分租套房,F,"2","2","0",8,T,T,T,F,F,T,T,F,T,T,F,T,T,F,不限,F,F,T,"0",T,T,T,T,T,T,F,T,T,T,T,T,F,23.007604,120.228981,"67000340005",力行里
"808",臺南市,臺南市東區,"1","6000",F,"0",T,600,透天,獨立套房,F,"4","4","0",10,T,T,T,T,F,T,T,T,T,T,T,T,T,F,不限,F,F,T,"0",T,T,T,T,T,T,T,T,T,T,T,T,F,22.9737263,120.2308502,"67000320019",崇善里
"825",臺南市,臺南市東區,"1","4000",F,"0",T,1000,透天,獨立套房,F,"1","2","1",4,T,F,T,F,F,T,T,T,T,T,T,F,T,F,不限,F,F,T,"1",T,T,T,T,T,T,F,T,T,T,T,T,F,22.9840051,120.2137416,"67000320038",大同里
"826",臺南市,臺南市北區,"1","16500",F,"0",F,679.852,電梯大樓,整層住家,F,"10","18","8",24.3,T,T,T,T,T,T,T,T,T,T,T,T,T,F,不限,T,F,T,"2",T,T,T,F,F,F,T,F,T,F,F,F,F,23.001697,120.2024731,"67000340054",立人里
"847",臺南市,臺南市北區,"1","9800",F,"0",F,816.667,透天,分租套房,F,"2","4","2",12,T,F,T,F,T,T,T,T,T,F,F,T,T,F,不限,F,T,T,"0",T,T,T,T,T,T,T,T,F,T,T,F,F,23.005369,120.221576,"67000340007",振興里
"858",臺南市,臺南市東區,"1","9500",F,"0",F,791.667,透天,分租套房,F,"2","3","1",12,T,T,T,F,F,T,T,T,T,T,T,T,T,F,不限,T,T,T,"2",T,T,T,T,T,T,T,T,T,T,T,T,F,22.9768186,120.2384199,"67000270004",仁德里
"869",臺南市,臺南市北區,"1","6300",F,"0",F,787.5,透天,獨立套房,F,"2","3","1",8,T,F,T,F,F,T,T,T,T,T,F,T,T,F,不限,F,F,T,"0",T,T,T,T,T,T,F,T,T,T,T,T,F,23.0056989,120.2206706,"67000340007",振興里
"1011",臺南市,臺南市永康區,"1","4800",F,"0",F,960,透天,獨立套房,F,"2","5","3",5,T,T,T,F,F,T,T,F,T,T,F,F,T,F,不限,F,F,T,"2",T,T,T,T,T,T,F,F,T,T,T,T,F,23.0102891,120.262093,"67000310014",西灣里
"1102",臺南市,臺南市中西區,"1","8300",F,"0",F,1106.67,公寓,獨立套房,F,"3","6","3",7.5,T,T,T,F,F,T,F,T,T,F,F,T,T,F,不限,F,F,T,"0",T,F,T,T,T,T,F,T,T,T,T,T,F,22.9964521,120.194735,"67000370022",藥王里
"1117",臺南市,臺南市東區,"2","27000",F,"0",T,1202.14,電梯大樓,整層住家,F,"12","14","2",22.46,T,T,T,T,T,T,T,T,T,T,T,T,T,F,不限,T,F,T,"2",T,T,T,T,T,T,T,T,T,T,F,F,T,22.9835885,120.2230538,"67000320024",龍山里
"1240",臺南市,臺南市中西區,"1","4000",F,"0",F,571.429,透天,分租套房,F,"4","6","2",7,T,T,T,F,T,T,T,T,T,T,T,T,T,F,不限,F,F,T,"0",T,T,T,F,T,T,F,T,T,T,T,F,F,22.9820492,120.1981424,"67000370042",小西門里
"1245",臺南市,臺南市永康區,"1","6000",F,"0",F,1000,透天,獨立套房,F,"1","3","2",6,T,F,T,F,F,T,F,F,T,T,F,T,T,F,不限,F,T,T,"1",T,T,T,T,T,T,T,T,T,T,T,T,F,23.0125152,120.2286086,"67000310031",六合里
"1248",臺南市,臺南市東區,"1","7500",T,"500",T,800,電梯大樓,獨立套房,F,"2","7","5",10,T,T,T,F,T,T,T,T,T,T,T,T,T,F,不限,T,F,T,"1",T,T,T,T,T,T,T,T,T,T,T,F,F,22.9853696,120.2124147,"67000320038",大同里
"1249",臺南市,臺南市東區,"1","5000",F,"0",F,833.333,電梯大樓,獨立套房,F,"2","7","5",6,T,T,T,F,T,T,T,T,T,F,T,T,T,F,不限,T,T,T,"1",T,T,T,T,T,T,T,T,T,T,T,F,F,22.9853696,120.2124147,"67000320038",大同里
"1387",臺南市,臺南市安平區,"1","7500",F,"0",F,750,透天,獨立套房,F,"3","5","2",10,T,T,T,F,F,T,T,T,T,T,T,T,T,F,不限,F,F,T,"2",T,T,T,T,T,T,F,T,T,T,T,T,F,22.9924046,120.1813356,"67000360005",建平里
"1435",臺南市,臺南市安平區,"1","6000",F,"0",F,1418.44,電梯大樓,獨立套房,F,"10","12","2",4.23,T,T,T,T,T,T,T,T,T,T,T,T,T,F,不限,F,F,T,"2",T,T,T,F,T,T,F,T,T,T,F,F,T,22.9970314,120.1767355,"67000360006",怡平里
"1470",臺南市,臺南市東區,"1","11000",T,"550",F,1050,電梯大樓,獨立套房,F,"19","22","3",11,T,T,T,T,T,T,T,T,T,T,T,T,T,F,不限,T,F,T,"2",T,T,T,T,T,T,T,T,T,T,F,F,F,22.9822985,120.2149869,"67000320005",泉南里
"1502",臺南市,臺南市永康區,"1","15000",T,"1900",F,497.059,電梯大樓,整層住家,F,"5","20","15",34,T,T,T,T,T,T,F,F,T,F,F,T,T,F,不限,T,T,T,"0",F,F,F,F,T,F,F,F,F,F,F,F,T,23.0213078,120.2222192,"67000310036",尚頂里
"1584",臺南市,臺南市北區,"1","8500",F,"0",F,708.333,透天,獨立套房,F,"5","5","0",12,T,T,T,T,T,T,T,T,T,T,T,T,T,F,不限,T,F,F,"2",T,F,F,F,T,T,F,F,T,F,F,F,F,23.0184148,120.2160911,"67000340046",北門里
"1610",臺南市,臺南市東區,"1","4500",F,"0",F,1125,透天,獨立套房,F,"1","2","1",4,T,F,T,F,F,T,T,T,T,T,T,T,T,F,不限,F,F,T,"1",T,T,T,T,T,T,F,T,T,T,T,T,F,22.9867716,120.2252779,"67000320009",新東里
"1612",臺南市,臺南市中西區,"1","4200",F,"0",F,466.667,透天,分租套房,F,"2","4","2",9,T,F,T,T,T,F,F,T,T,T,F,F,T,T,限女,F,F,T,"1",T,T,T,F,T,T,F,T,T,F,F,F,F,22.9984199,120.1993351,"67000370043",五條港里
"1614",臺南市,臺南市東區,"1","11500",F,"0",F,884.615,透天,整層住家,F,"3","4","1",13,T,F,T,F,F,T,F,T,T,F,T,T,T,F,不限,T,F,T,"1",T,T,T,T,T,T,T,T,T,T,T,T,F,22.9861307,120.2118659,"67000320038",大同里
"1628",臺南市,臺南市東區,"1","5500",F,"0",F,785.714,透天,獨立套房,F,"2","6","4",7,T,F,T,F,F,T,T,T,T,T,F,T,T,F,不限,F,F,T,"1",T,T,T,T,T,T,F,T,T,T,T,T,F,22.9874781,120.217294,"67000320036",東門里
"1644",臺南市,臺南市永康區,"1","6000",F,"0",F,857.143,透天,分租套房,F,"1","4","3",7,T,T,T,T,T,T,T,T,T,T,T,T,T,F,不限,F,F,T,"0",T,T,T,T,T,T,F,T,T,T,T,T,F,23.0440819,120.2408836,"67000310043",塩興里
"1650",臺南市,臺南市永康區,"1","5500",F,"0",T,916.667,透天,獨立套房,F,"4","4","0",6,T,T,T,T,T,T,T,F,T,T,T,T,T,F,不限,T,F,T,"0",T,T,T,T,T,T,T,T,T,T,F,T,T,23.03098,120.250331,"67000310038",正強里
"1732",臺南市,臺南市永康區,"1","7600",F,"0",T,1085.71,電梯大樓,獨立套房,F,"1","5","4",7,T,F,T,F,F,T,T,F,T,F,F,T,T,F,不限,F,F,T,"0",T,T,T,T,T,T,F,T,T,T,T,T,F,23.021117,120.228022,"67000310005",大橋里
"1815",臺南市,臺南市永康區,"1","5500",F,"0",F,687.5,透天,獨立套房,F,"5","5","0",8,T,T,T,F,F,F,F,F,T,F,F,F,T,F,不限,F,T,T,"0",T,T,T,T,T,T,F,T,T,T,T,T,F,23.0448711,120.244842,"67000310043",塩興里
"1816",臺南市,臺南市永康區,"1","5800",F,"0",F,773.333,透天,獨立套房,F,"2","4","2",7.5,T,F,F,F,F,T,T,F,T,T,T,F,T,F,不限,F,F,T,"1",T,T,T,T,T,T,F,T,T,T,T,T,F,23.0113701,120.235596,"67000310001",五王里
"1829",臺南市,臺南市永康區,"1","15000",T,"1700",T,521.875,電梯大樓,整層住家,F,"10","17","7",32,T,T,T,T,T,T,T,F,T,T,F,F,T,F,不限,T,F,F,"0",T,T,T,T,T,T,T,F,T,T,F,F,T,23.007891,120.234101,"67000310031",六合里
"1833",臺南市,臺南市安平區,"2","16000",T,"2040",F,668.148,電梯大樓,整層住家,F,"8","26","18",27,T,T,T,T,T,T,T,T,T,F,T,T,T,F,不限,T,T,T,"2",T,F,T,T,T,T,T,T,T,T,F,F,T,22.984588,120.169498,"67000360010",國平里
"1898",臺南市,臺南市中西區,"1","5500",F,"0",F,1100,透天,獨立套房,F,"5","6","1",5,T,T,T,F,T,T,T,T,T,T,T,T,T,T,限女,F,F,T,"0",T,T,T,F,T,T,F,T,T,T,T,F,F,22.9934356,120.207425,"67000370039",城隍里
"1900",臺南市,臺南市東區,"1","3800",F,"0",F,760,透天,獨立套房,F,"3","3","0",5,T,F,T,F,T,T,T,F,T,T,F,F,T,F,不限,F,F,T,"0",T,T,T,F,T,T,F,T,T,T,T,F,F,22.9746647,120.21595,"67000320028",大福里
"1924",臺南市,臺南市北區,"1","6000",F,"0",T,750,透天,獨立套房,F,"5","5","0",8,T,T,T,F,F,T,T,T,T,T,T,T,T,F,不限,F,F,T,"0",T,T,T,T,T,T,F,T,T,T,T,T,F,23.015463,120.2092931,"67000340053",福德里
"1943",臺南市,臺南市安南區,"1","5500",F,"0",F,785.714,透天,獨立套房,F,"2","4","2",7,T,F,T,F,F,T,T,F,T,T,T,T,T,F,不限,F,F,T,"0",T,T,T,T,T,T,F,T,T,T,T,T,F,23.066038,120.159833,"67000350024",公塭里
"1979",臺南市,臺南市安平區,"1","28000",F,"0",T,582.848,電梯大樓,整層住家,F,"11","22","11",48.04,T,T,T,T,T,T,T,F,T,T,T,F,T,F,不限,T,F,T,"2",T,T,T,T,T,T,T,T,T,T,F,F,T,22.9928898,120.1699974,"67000360008",平通里
"2009",臺南市,臺南市永康區,"1","23800",F,"0",T,1120.58,電梯大樓,整層住家,F,"7","23","16",21.239,T,T,T,T,T,T,T,F,T,T,T,T,T,F,不限,T,F,T,"2",T,T,T,F,T,T,T,T,T,F,F,F,T,23.0228279,120.2363405,"67000310033",東橋里
"2015",臺南市,臺南市北區,"1","23000",F,"0",T,511.111,電梯大樓,整層住家,F,"3","24","21",45,T,T,T,F,T,T,T,F,T,T,T,T,T,F,不限,T,F,T,"2",T,T,T,T,T,T,T,T,T,T,T,F,T,23.0092802,120.2228601,"67000340001",開元里
"2037",臺南市,臺南市永康區,"1","8000",F,"0",F,400,公寓,整層住家,F,"6","6","0",20,T,T,T,T,T,T,T,F,T,T,F,T,T,F,不限,F,F,T,"0",T,T,T,T,T,T,T,T,T,T,F,F,F,23.0139769,120.2287864,"67000310034",安康里
"2052",臺南市,臺南市北區,"1","28000",F,"0",T,580.913,電梯大樓,整層住家,F,"10","24","14",48.2,T,T,T,T,T,T,T,F,T,T,T,T,T,F,不限,T,F,T,"2",T,T,T,T,T,T,T,T,T,T,F,F,T,23.0092802,120.2228601,"67000340001",開元里
"2113",臺南市,臺南市南區,"1","5600",F,"0",T,373.333,透天,獨立套房,F,"2","2","0",15,T,T,T,T,T,T,T,F,T,T,T,T,T,T,限女,F,F,T,"0",T,T,T,T,T,T,F,T,T,F,T,T,F,22.9271841,120.1821087,"67000330038",永寧里
"2132",臺南市,臺南市東區,"1","6000",F,"0",F,705.882,電梯大樓,獨立套房,F,"2","6","4",8.5,T,F,T,F,F,T,T,T,T,T,F,T,T,F,不限,F,F,T,"1",T,T,T,T,T,T,T,T,T,T,T,T,F,22.998282,120.238506,"67000320007",後甲里
"2198",臺南市,臺南市永康區,"1","3800",F,"0",F,904.762,透天,獨立套房,F,"3","3","0",4.2,T,T,T,T,T,T,T,T,T,T,T,T,F,F,不限,F,F,T,"0",T,T,T,T,T,T,F,T,T,T,T,T,F,23.007212,120.2580461,"67000310016",崑山里
"2199",臺南市,臺南市永康區,"1","5000",F,"0",T,500,透天,獨立套房,F,"4","4","0",10,T,F,T,F,F,T,T,T,T,T,T,T,T,F,不限,F,F,T,"0",T,T,T,T,F,T,F,T,T,T,T,T,F,23.0140629,120.2270293,"67000310034",安康里
"2209",臺南市,臺南市東區,"1","7000",F,"0",F,875,透天,獨立套房,F,"3","5","2",8,T,T,T,F,F,T,T,T,T,T,T,T,T,F,不限,F,F,T,"1",T,T,T,T,T,T,F,T,T,T,T,T,F,22.989938,120.215982,"67000320021",圍下里
"2263",臺南市,臺南市東區,"1","5800",F,"0",F,828.571,透天,獨立套房,F,"3","3","0",7,T,F,T,F,F,T,T,T,T,T,T,T,T,F,不限,T,F,F,"1",T,T,T,T,T,T,F,T,T,T,T,T,F,22.9988911,120.227623,"67000320022",小東里
"2413",臺南市,臺南市東區,"1","5000",F,"0",T,1000,透天,獨立套房,F,"2","4","2",5,T,T,T,F,F,T,T,T,T,T,T,T,T,F,不限,F,F,T,"0",T,T,T,T,T,T,F,T,T,T,T,T,F,22.9962654,120.2333603,"67000320027",莊敬里
"2601",臺南市,臺南市安平區,"1","20000",F,"0",T,628.575,電梯大樓,整層住家,F,"2","23","21",31.818,T,T,T,T,T,T,T,F,T,T,T,F,T,F,不限,T,F,T,"2",F,F,F,T,T,T,F,T,T,T,F,F,F,22.9920263,120.1685499,"67000360008",平通里
"2643",臺南市,臺南市安平區,"1","9800",F,"0",F,576.471,電梯大樓,獨立套房,F,"5","12","7",17,T,T,T,T,T,T,T,T,T,T,T,T,T,F,不限,T,F,T,"0",T,T,T,T,T,T,T,T,T,T,F,T,T,22.9970245,120.1821213,"67000360005",建平里
"2719",臺南市,臺南市安平區,"1","20000",F,"0",T,779.12,電梯大樓,整層住家,F,"7","7","0",25.67,T,T,T,T,T,T,T,F,T,F,T,F,T,F,不限,T,F,T,"2",T,T,F,T,T,T,T,T,F,T,F,F,T,22.9843938,120.1814162,"67000360009",文平里
"2738",臺南市,臺南市永康區,"1","6700",F,"0",F,744.444,透天,獨立套房,F,"1","3","2",9,T,T,F,T,T,T,T,T,T,T,T,T,T,F,不限,F,F,T,"0",T,T,T,T,T,T,T,T,T,T,F,F,T,23.020896,120.228001,"67000310005",大橋里
"2740",臺南市,臺南市東區,"1","20000",F,"0",T,790.826,電梯大樓,整層住家,F,"6","18","12",25.29,T,T,T,T,T,T,T,T,T,T,T,T,T,F,不限,T,T,T,"2",T,T,T,T,T,T,T,T,T,T,F,F,T,22.9811368,120.2269042,"67000320040",崇信里
"2808",臺南市,臺南市永康區,"1","18000",F,"0",T,450,公寓,整層住家,F,"4","8","4",40,T,T,T,T,T,T,T,F,T,F,F,F,T,F,不限,T,F,T,"0",T,T,T,F,T,T,T,T,T,T,F,F,T,23.0166728,120.2583189,"67000310002",網寮里
"2830",臺南市,臺南市安平區,"1","21000",F,"0",T,777.778,電梯大樓,整層住家,F,"14","20","6",27,T,T,T,T,T,T,T,T,T,T,T,T,T,F,不限,T,F,T,"1",T,T,T,T,T,T,T,T,T,T,F,F,T,22.9837024,120.1687626,"67000360010",國平里
"2862",臺南市,臺南市東區,"1","16000",F,"0",F,703.297,透天,整層住家,F,"0","2","2",22.75,T,T,T,T,T,T,T,T,T,T,F,T,T,F,不限,T,F,T,"0",T,T,T,T,T,T,T,T,T,T,F,F,F,22.990605,120.234853,"67000320007",後甲里
"2890",臺南市,臺南市安南區,"1","6000",F,"0",F,857.143,透天,獨立套房,F,"3","4","1",7,T,T,T,F,F,T,T,F,T,T,T,T,F,F,不限,F,F,F,"0",T,T,T,T,T,T,F,T,T,T,T,T,F,23.0413513,120.1875534,"67000350015",海東里
"2901",臺南市,臺南市北區,"1","5500",F,"0",F,1100,透天,獨立套房,F,"3","3","0",5,T,F,T,F,F,T,T,T,T,F,T,T,T,F,不限,F,F,T,"1",T,T,T,T,T,T,F,T,T,T,T,T,F,23.00933,120.22149,"67000340001",開元里
"2960",臺南市,臺南市中西區,"1","6200",F,"0",T,516.667,透天,雅房,F,"2","5","3",12,T,T,T,F,F,T,T,T,T,T,T,T,T,T,限女,F,F,F,"0",T,T,T,T,T,T,F,T,T,T,T,T,F,22.9770516,120.2038214,"67000330001",竹溪里
"2997",臺南市,臺南市東區,"1","3500",F,"0",T,437.5,透天,雅房,F,"1","3","2",8,T,T,F,F,F,T,T,T,T,T,T,T,T,T,限女,T,F,T,"0",T,T,T,T,T,T,T,T,T,T,T,T,T,22.984602,120.227431,"67000320001",富裕里
"3078",臺南市,臺南市東區,"1","3700",F,"0",F,528.571,透天,雅房,F,"3","3","0",7,F,F,T,F,T,T,T,T,T,T,T,T,T,F,不限,F,F,F,"0",T,T,T,F,T,T,F,T,T,T,T,F,F,22.994462,120.220943,"67000320023",大學里
"3117",臺南市,臺南市東區,"1","6500",F,"0",F,1083.33,透天,獨立套房,F,"5","5","0",6,T,F,T,F,F,T,T,T,T,T,T,T,T,F,不限,F,F,T,"0",T,T,T,T,T,T,F,T,T,T,T,T,F,22.969727,120.2259364,"67000320035",崇成里
"3124",臺南市,臺南市永康區,"1","8300",F,"0",F,830.831,電梯大樓,獨立套房,F,"5","8","3",9.99,T,T,T,T,T,T,F,F,T,T,F,T,T,F,不限,F,F,T,"2",T,T,T,F,T,T,F,F,T,T,F,F,F,23.0128285,120.228673,"67000310031",六合里
"3176",臺南市,臺南市中西區,"1","5500",F,"0",F,611.111,公寓,獨立套房,F,"4","7","3",9,T,T,T,F,F,T,T,T,T,T,T,F,F,F,不限,F,T,T,"0",T,T,T,T,T,T,T,T,T,T,T,T,F,23.0004319,120.1941422,"67000370044",兌悅里
"3210",臺南市,臺南市永康區,"1","9500",F,"0",F,895.382,電梯大樓,獨立套房,F,"6","7","1",10.61,T,T,T,T,F,T,T,F,T,T,T,T,T,F,不限,T,F,F,"1",T,T,T,T,T,T,F,T,T,T,F,T,F,23.011631,120.231882,"67000310031",六合里
"3212",臺南市,臺南市東區,"1","19000",F,"0",F,950,公寓,整層住家,F,"1","4","3",20,T,T,T,T,T,F,T,F,T,F,F,F,T,F,不限,T,F,T,"2",T,T,T,T,T,T,F,T,T,T,F,F,F,22.9953567,120.2147276,"67000320037",成大里
"3224",臺南市,臺南市東區,"1","17000",F,"0",F,978.699,電梯大樓,整層住家,F,"4","8","4",17.37,T,T,T,T,T,F,F,F,T,F,T,T,T,F,不限,T,F,T,"1",F,F,F,F,T,T,F,F,F,F,F,F,T,22.9684976,120.2335225,"67000320026",德高里
"3277",臺南市,臺南市北區,"1","28000",F,"0",T,1042.05,電梯大樓,整層住家,F,"10","24","14",26.87,T,T,T,T,T,T,T,T,T,T,F,T,T,F,不限,T,F,T,"2",T,T,T,T,T,T,T,T,T,T,F,F,T,23.0070143,120.2201813,"67000340007",振興里
"3288",臺南市,臺南市北區,"1","19000",F,"0",F,864.422,電梯大樓,整層住家,F,"12","24","12",21.98,T,T,T,T,T,T,T,T,T,T,T,T,T,F,不限,T,T,T,"2",T,T,T,T,T,T,T,T,T,T,F,F,T,23.0094361,120.2219677,"67000340001",開元里
"3313",臺南市,臺南市北區,"1","26000",F,"0",T,916.138,電梯大樓,整層住家,F,"15","24","9",28.38,T,T,T,T,T,T,T,T,T,T,F,T,T,F,不限,T,F,T,"2",T,T,T,T,T,T,T,T,T,T,F,F,T,23.0068431,120.2200101,"67000340007",振興里
"3341",臺南市,臺南市北區,"1","26000",F,"0",T,1052.21,電梯大樓,整層住家,F,"22","24","2",24.71,T,T,T,T,T,T,T,T,T,T,F,T,T,F,不限,T,F,T,"2",T,T,T,T,T,T,T,F,T,F,F,F,T,23.0070009,120.2201679,"67000340007",振興里
"3381",臺南市,臺南市中西區,"1","20000",F,"0",F,888.099,電梯大樓,整層住家,F,"20","20","0",22.52,T,T,T,T,T,T,T,T,T,T,T,T,T,F,不限,T,F,T,"2",T,T,T,T,T,T,T,T,T,T,F,F,F,22.9980687,120.2063226,"67000370005",赤嵌里
"3405",臺南市,臺南市東區,"1","3200",F,"0",F,800,電梯大樓,分租套房,F,"5","8","3",4,T,T,T,F,T,T,T,T,T,T,T,T,T,F,不限,F,F,F,"1",T,T,T,F,T,T,F,T,T,F,T,F,F,22.9874711,120.2161534,"67000320005",泉南里
"3418",臺南市,臺南市永康區,"2","5600",F,"0",F,800,電梯大樓,獨立套房,F,"8","8","0",7,T,F,T,F,F,T,T,T,T,T,T,T,T,F,不限,F,F,T,"0",T,T,T,T,T,T,T,T,T,T,T,T,F,23.0034484,120.2355613,"67000310024",成功里
"3505",臺南市,臺南市東區,"1","10500",F,"0",F,1050,透天,獨立套房,F,"3","6","3",10,T,F,T,F,F,T,T,T,T,T,T,T,T,F,不限,T,F,T,"0",T,T,T,T,T,T,T,T,T,T,T,T,F,22.9845778,120.2130309,"67000320038",大同里
"3579",臺南市,臺南市中西區,"1","25000",T,"2051",F,659.62,電梯大樓,整層住家,F,"4","10","6",41.01,T,T,T,T,T,T,T,T,T,T,T,T,F,F,不限,T,F,T,"0",T,T,T,T,T,T,T,T,T,T,F,T,T,22.999328,120.1891032,"67000370048",西和里
"3607",臺南市,臺南市永康區,"1","5000",F,"0",T,625,透天,獨立套房,F,"2","4","2",8,T,F,T,F,F,T,F,F,T,F,T,F,T,F,不限,F,F,T,"0",T,T,T,T,T,T,F,T,T,T,T,T,F,23.0395734,120.2424101,"67000310010",塩行里
"3617",臺南市,臺南市南區,"1","7000",F,"0",F,1000,公寓,獨立套房,T,"6","5","-1",7,T,T,T,F,F,T,T,T,T,T,T,T,T,T,限女,F,F,F,"0",T,T,T,F,T,T,F,T,T,T,T,F,F,22.9794447,120.2089481,"67000330001",竹溪里
"3620",臺南市,臺南市南區,"1","7000",F,"0",F,875,公寓,獨立套房,F,"5","5","0",8,T,T,T,F,T,T,T,F,T,F,T,F,T,T,限女,F,F,F,"0",T,T,T,F,T,T,T,T,T,T,T,F,F,22.9794447,120.2089481,"67000330001",竹溪里
"3627",臺南市,臺南市安平區,"1","22000",F,"0",T,983.021,電梯大樓,整層住家,F,"17","26","9",22.38,T,T,T,T,T,T,T,T,T,T,T,T,T,F,不限,T,F,T,"2",T,T,T,T,T,T,T,T,T,T,T,F,F,22.9852819,120.1702867,"67000360010",國平里
"3690",臺南市,臺南市東區,"1","3800",F,"0",F,950,電梯大樓,分租套房,F,"7","8","1",4,T,T,T,F,T,T,T,T,T,T,T,T,T,F,不限,F,F,F,"1",T,T,T,T,T,T,F,T,T,T,T,F,F,22.9874711,120.2161534,"67000320005",泉南里
"3694",臺南市,臺南市永康區,"1","32000",F,"0",T,1358.23,電梯大樓,整層住家,F,"5","18","13",23.56,T,T,T,T,T,T,T,F,T,T,F,T,T,F,不限,T,F,T,"0",T,T,T,T,T,T,T,T,T,T,F,F,T,23.0236197,120.2360345,"67000310033",東橋里
"3857",臺南市,臺南市中西區,"1","7200",F,"0",F,1028.57,電梯大樓,獨立套房,F,"4","9","5",7,T,T,T,T,T,T,T,T,T,T,T,T,T,F,不限,T,F,T,"2",T,T,F,F,T,F,T,F,T,T,F,F,F,22.9912921,120.1936911,"67000370046",府前里
"3863",臺南市,臺南市永康區,"1","4700",F,"0",T,1175,透天,分租套房,F,"3","3","0",4,T,T,T,F,T,T,T,F,T,T,T,T,T,T,限男,F,F,T,"0",T,T,T,T,T,T,T,T,T,T,T,F,F,23.0401468,120.2634931,"67000310007",烏竹里
"3935",臺南市,臺南市北區,"1","6800",F,"0",F,850,電梯大樓,分租套房,F,"5","5","0",8,T,F,T,F,F,T,T,T,T,T,T,T,T,F,不限,F,F,T,"0",T,T,T,T,T,T,F,T,T,T,T,T,F,23.0039278,120.2198696,"67000340008",仁愛里
"3948",臺南市,臺南市永康區,"1","16000",F,"0",F,1126.76,電梯大樓,整層住家,F,"12","14","2",14.2,T,T,T,T,T,T,T,T,T,T,T,T,F,F,不限,T,F,T,"2",T,T,T,F,T,T,T,T,T,T,F,F,T,23.0120246,120.2468467,"67000310020",復國里
"4068",臺南市,臺南市東區,"1","6800",F,"0",F,680,電梯大樓,獨立套房,F,"7","8","1",10,T,T,T,T,T,T,T,T,T,T,T,T,T,F,不限,T,F,T,"2",F,F,F,F,T,T,F,T,T,F,F,F,F,22.9825672,120.2250637,"67000320024",龍山里
"4072",臺南市,臺南市中西區,"1","4800",F,"0",F,800,電梯大樓,雅房,F,"3","3","0",6,F,F,F,F,F,T,T,T,T,T,F,T,T,F,不限,F,F,T,"0",T,T,T,T,T,T,F,T,T,T,T,T,F,22.9813448,120.1979523,"67000330004",大成里
"4124",臺南市,臺南市東區,"1","37000",T,"3870",T,547.855,電梯大樓,整層住家,F,"9","15","6",74.6,T,T,T,T,T,T,T,T,T,T,F,T,T,F,不限,T,F,T,"2",F,F,F,F,T,T,F,F,F,F,F,F,T,22.9632994,120.2179538,"67000320033",東智里
"4150",臺南市,臺南市安平區,"1","22000",F,"0",T,607.399,電梯大樓,整層住家,F,"8","24","16",36.22,T,T,T,T,T,T,T,T,T,T,T,T,T,F,不限,T,F,T,"0",T,T,T,F,T,T,T,T,T,F,F,F,T,22.9845548,120.1693925,"67000360010",國平里
"4162",臺南市,臺南市北區,"1","26000",F,"0",F,1040,公寓,整層住家,F,"13","24","11",25,T,T,T,T,T,T,T,T,T,T,T,T,T,F,不限,T,F,T,"0",T,T,T,T,T,T,T,T,T,T,T,T,T,23.0077049,120.2212848,"67000340007",振興里
"4185",臺南市,臺南市中西區,"1","7000",F,"0",F,875,電梯大樓,獨立套房,F,"7","7","0",8,T,T,T,T,T,T,T,T,T,T,T,T,T,F,不限,T,F,T,"0",T,T,T,T,T,T,T,T,T,T,F,F,F,22.9997745,120.1835437,"67000370033",西湖里
"4249",臺南市,臺南市東區,"1","5500",F,"0",F,916.667,電梯大樓,獨立套房,F,"4","4","0",6,T,F,T,F,T,T,T,T,T,F,F,T,T,F,不限,F,F,T,"1",T,T,T,T,T,T,F,T,T,T,T,F,F,22.998991,120.229439,"67000320027",莊敬里
"4256",臺南市,臺南市永康區,"1","5900",F,"0",F,842.857,透天,獨立套房,F,"3","5","2",7,T,F,T,F,F,T,F,F,T,F,T,F,T,F,不限,F,F,T,"1",T,T,T,T,T,T,F,T,T,T,T,T,F,23.0446959,120.23408,"67000310029",塩洲里
"4284",臺南市,臺南市東區,"1","5500",F,"0",F,916.667,電梯大樓,獨立套房,T,"5","4","-1",6,T,F,T,F,T,T,T,T,T,T,F,T,T,F,不限,F,F,F,"0",T,T,T,T,T,T,F,T,T,T,T,F,F,22.998991,120.229439,"67000320027",莊敬里
"4414",臺南市,臺南市北區,"1","14000",F,"0",F,700,透天,整層住家,F,"0","2","2",20,T,T,T,T,T,T,T,T,T,T,T,T,T,F,不限,T,T,F,"2",T,F,F,T,T,T,F,T,F,T,F,F,F,23.0102164,120.2136351,"67000340048",大光里
"4538",臺南市,臺南市中西區,"1","45000",F,"0",T,1125.28,電梯大樓,整層住家,F,"9","13","4",39.99,T,T,T,T,T,T,T,T,T,T,T,T,T,F,不限,T,F,F,"2",T,T,T,F,T,T,F,T,T,T,F,F,T,23.0015775,120.1980547,"67000340054",立人里
"4649",臺南市,臺南市東區,"1","3500",F,"0",F,700,透天,獨立套房,F,"4","4","0",5,T,F,T,F,T,T,T,T,T,T,T,T,T,F,不限,F,F,T,"0",T,T,T,F,T,T,F,T,T,T,T,F,F,22.9791913,120.2343261,"67000320025",虎尾里
"4869",臺南市,臺南市永康區,"1","5500",F,"0",F,873.016,電梯大樓,獨立套房,F,"7","8","1",6.3,T,T,T,T,F,T,T,T,T,T,T,T,T,F,不限,T,F,T,"2",T,F,F,T,T,T,F,T,T,T,F,T,F,23.0137928,120.2324795,"67000310001",五王里
"4880",臺南市,臺南市中西區,"1","6000",F,"0",F,923.077,電梯大樓,獨立套房,F,"11","11","0",6.5,T,F,T,T,T,T,T,T,T,T,T,F,T,F,不限,T,F,T,"2",T,T,T,T,T,T,F,T,T,T,F,T,F,22.9926493,120.1936269,"67000370046",府前里
"4895",臺南市,臺南市東區,"1","6800",F,"0",F,850,透天,獨立套房,F,"1","3","2",8,T,T,T,F,F,T,T,F,T,T,T,T,T,F,不限,T,F,F,"1",T,T,T,T,T,T,T,T,T,T,T,T,F,22.9596311,120.2287413,"67000270012",成功里
"4912",臺南市,臺南市永康區,"1","20000",F,"0",T,687.521,電梯大樓,整層住家,F,"14","14","0",29.09,T,T,T,T,T,T,T,T,T,T,T,T,T,F,不限,T,T,T,"2",T,T,T,T,T,T,T,T,T,T,F,F,T,23.0120246,120.2468467,"67000310020",復國里
"5025",臺南市,臺南市永康區,"1","13800",T,"1000",F,563.745,電梯大樓,整層住家,F,"8","15","7",26.253,T,T,T,T,T,T,T,F,T,T,T,T,T,F,不限,T,T,F,"2",F,F,F,F,T,F,F,F,F,F,F,F,F,23.0103562,120.2462802,"67000310020",復國里
"5123",臺南市,臺南市東區,"1","19800",F,"0",T,1021.14,電梯大樓,整層住家,F,"6","8","2",19.39,T,T,T,T,T,T,T,T,T,T,T,T,T,F,不限,T,F,T,"2",T,T,T,F,T,T,T,T,T,T,F,F,T,22.9892477,120.2299281,"67000320002",裕農里
"5124",臺南市,臺南市永康區,"2","6500",F,"0",F,812.5,透天,獨立套房,F,"3","4","1",8,T,F,T,F,T,T,T,T,T,T,T,T,T,F,不限,F,F,T,"0",T,T,T,T,T,T,F,T,T,T,T,F,F,23.013331,120.234341,"67000310001",五王里
"5135",臺南市,臺南市東區,"1","4300",F,"0",T,955.556,透天,獨立套房,F,"3","3","0",4.5,T,T,T,F,F,T,T,T,T,T,F,F,T,F,不限,T,T,T,"0",T,T,T,T,T,T,F,T,T,T,T,T,F,22.9803015,120.2358825,"67000320025",虎尾里
"5218",臺南市,臺南市中西區,"1","11000",F,"0",F,550,公寓,整層住家,F,"4","5","1",20,T,T,T,F,T,T,T,T,T,T,T,T,T,F,不限,F,F,T,"0",T,T,T,F,T,T,T,T,T,T,T,F,F,22.982444,120.199373,"67000370042",小西門里
"5231",臺南市,臺南市安平區,"1","26500",F,"0",T,1558.82,公寓,整層住家,F,"21","23","2",17,T,T,T,T,T,T,T,T,T,T,T,T,T,F,不限,T,F,F,"1",T,T,T,T,T,T,T,T,T,T,F,F,T,22.991994,120.1687057,"67000360008",平通里
"5245",臺南市,臺南市永康區,"1","5900",F,"0",F,737.5,透天,獨立套房,F,"2","5","3",8,T,F,T,F,F,T,T,F,T,T,T,T,T,F,不限,F,F,F,"0",T,T,T,T,T,T,F,T,T,T,T,T,F,23.0423489,120.2391644,"67000310043",塩興里
"5247",臺南市,臺南市中西區,"2","7500",F,"0",F,937.5,電梯大樓,獨立套房,F,"6","9","3",8,T,T,T,T,T,T,F,T,T,T,F,T,T,F,不限,F,F,T,"0",T,T,T,T,T,T,T,T,T,T,F,F,F,22.9947826,120.1947641,"67000370045",淺草里
"5248",臺南市,臺南市永康區,"1","6500",F,"0",F,1083.33,透天,獨立套房,F,"3","5","2",6,T,T,T,F,F,T,T,T,T,T,F,T,T,F,不限,F,F,T,"0",T,T,T,T,T,T,F,T,T,T,T,T,F,23.015394,120.228197,"67000310034",安康里
"5273",臺南市,臺南市東區,"1","5000",F,"0",T,1000,電梯大樓,獨立套房,F,"4","6","2",5,T,T,T,F,T,T,T,T,T,T,F,T,T,F,不限,F,F,T,"0",T,T,T,T,T,T,F,T,T,T,T,T,F,22.9996603,120.2339374,"67000310026",勝利里
"5275",臺南市,臺南市中西區,"1","8000",T,"720",F,890.705,電梯大樓,獨立套房,F,"15","18","3",9.8,T,T,T,F,F,F,T,T,T,F,F,F,T,F,不限,F,F,F,"0",T,T,T,T,T,T,T,T,T,T,T,T,T,22.9947319,120.194046,"67000370045",淺草里
"5292",臺南市,臺南市永康區,"1","7100",F,"0",T,1183.33,電梯大樓,獨立套房,F,"6","7","1",6,T,T,T,F,F,T,F,F,T,T,F,T,T,F,不限,F,F,T,"0",T,T,T,T,T,T,F,T,T,T,T,T,F,23.0342571,120.2514645,"67000310038",正強里
"5353",臺南市,臺南市北區,"1","6000",F,"0",F,1000,透天,獨立套房,F,"1","2","1",6,T,F,T,F,F,T,T,T,T,T,F,T,F,F,不限,F,T,T,"1",T,T,T,T,T,T,F,T,T,T,T,T,F,23.0003474,120.2315894,"67000340004",東興里
"5376",臺南市,臺南市永康區,"1","9000",F,"0",F,1200,透天,獨立套房,F,"3","4","1",7.5,T,T,T,F,F,T,T,T,T,T,T,T,T,F,不限,F,F,T,"2",T,T,T,T,T,T,T,T,T,T,T,T,F,23.0085855,120.2312005,"67000310031",六合里
"5378",臺南市,臺南市北區,"1","4700",F,"0",F,1175,透天,獨立套房,F,"1","3","2",4,T,T,T,F,T,T,T,F,T,T,F,T,T,F,不限,F,F,T,"0",T,T,T,T,T,T,F,T,T,T,T,F,F,23.008806,120.218798,"67000340044",長勝里
"5399",臺南市,臺南市北區,"1","7500",F,"0",F,711.575,電梯大樓,獨立套房,F,"9","18","9",10.54,T,T,T,T,T,T,T,T,T,T,T,T,T,F,不限,F,F,T,"0",T,T,T,T,T,T,F,T,T,T,F,F,F,23.002236,120.2090834,"67000340050",長興里
"5618",臺南市,臺南市北區,"2","19000",T,"1465",T,730.893,電梯大樓,整層住家,F,"5","15","10",28,T,T,T,T,T,T,T,F,T,T,F,T,T,F,不限,T,F,T,"0",T,T,T,T,T,T,T,T,T,T,F,F,T,23.0108509,120.2232513,"67000340038",元寶里
"5652",臺南市,臺南市東區,"1","39800",F,"0",T,735.947,電梯大樓,整層住家,F,"4","14","10",54.08,T,T,T,T,T,T,T,T,T,T,T,T,T,F,不限,T,F,T,"1",T,T,T,T,T,T,T,T,T,T,F,F,T,22.9950419,120.2340478,"67000320027",莊敬里
"5686",臺南市,臺南市北區,"2","16000",T,"1465",T,623.75,電梯大樓,整層住家,F,"5","15","10",28,T,T,T,T,T,T,T,F,T,T,F,T,T,F,不限,T,F,T,"0",T,T,T,T,T,T,T,T,T,T,F,F,T,23.0108509,120.2232513,"67000340038",元寶里
"5715",臺南市,臺南市北區,"1","12000",F,"0",T,800,電梯大樓,整層住家,F,"5","12","7",15,T,T,T,T,T,T,T,T,T,T,T,T,F,F,不限,T,F,T,"1",T,T,T,T,T,T,T,T,T,T,F,F,F,23.0011719,120.2006064,"67000340054",立人里
"5726",臺南市,臺南市東區,"1","27000",F,"0",T,471.945,透天,整層住家,F,"5","5","0",57.21,T,T,T,T,T,T,T,T,T,T,F,T,T,F,不限,T,T,T,"0",T,T,F,F,T,T,T,F,T,F,F,F,T,22.9766555,120.2464468,"67000320043",裕聖里
"5759",臺南市,臺南市北區,"1","23000",F,"0",T,884.615,電梯大樓,整層住家,F,"5","24","19",26,T,T,T,T,T,T,T,F,T,T,F,T,T,F,不限,T,F,T,"2",T,T,T,T,T,T,T,T,T,T,F,F,T,23.0055472,120.216392,"67000340032",中樓里
"5903",臺南市,臺南市中西區,"1","12000",F,"0",F,1714.29,透天,獨立套房,F,"2","5","3",7,F,F,T,F,F,F,F,T,T,T,T,T,T,F,不限,F,T,T,"1",T,T,T,T,T,T,T,F,F,T,T,T,F,22.9949091,120.1969749,"67000370045",淺草里
"5946",臺南市,臺南市永康區,"1","28000",F,"0",T,578.512,電梯大樓,整層住家,F,"14","20","6",48.4,T,T,T,T,T,T,F,T,T,T,F,T,T,F,不限,T,F,T,"2",T,T,T,T,T,T,T,T,T,T,F,F,T,23.0218242,120.2347318,"67000310033",東橋里
"5948",臺南市,臺南市東區,"1","7600",F,"0",F,633.333,電梯大樓,獨立套房,F,"11","12","1",12,T,T,T,T,T,T,T,T,T,T,T,T,T,F,不限,F,F,T,"0",T,T,T,T,T,T,T,T,T,T,F,F,F,22.9857159,120.2183228,"67000320024",龍山里
"5952",臺南市,臺南市東區,"1","7000",T,"800",F,650,電梯大樓,獨立套房,F,"11","12","1",12,T,T,T,T,T,T,T,T,T,T,T,T,T,F,不限,F,F,T,"0",T,T,T,T,T,T,T,T,T,T,F,F,F,22.9857159,120.2183228,"67000320024",龍山里
"5988",臺南市,臺南市永康區,"1","4800",F,"0",T,872.727,透天,獨立套房,F,"3","3","0",5.5,T,F,T,F,F,T,T,T,T,T,T,T,T,F,不限,F,F,T,"0",T,T,T,T,T,T,F,T,T,T,T,T,F,23.0433431,120.233429,"67000310029",塩洲里
"6022",臺南市,臺南市北區,"1","6700",F,"0",F,1116.67,電梯大樓,獨立套房,F,"6","6","0",6,T,F,T,F,F,T,T,T,T,T,T,T,T,F,不限,F,F,T,"0",T,T,T,T,T,T,F,T,T,T,T,T,F,23.01179,120.212704,"67000340048",大光里
"6023",臺南市,臺南市東區,"2","15000",T,"800",F,632,電梯大樓,整層住家,F,"9","9","0",25,T,T,T,T,T,T,T,T,T,T,T,T,T,F,不限,T,F,T,"0",T,T,T,T,T,T,T,T,T,T,F,F,T,22.9691519,120.2351798,"67000320026",德高里
"6076",臺南市,臺南市安南區,"1","4800",F,"0",T,666.667,公寓,分租套房,F,"4","4","0",7.2,T,F,T,F,F,T,T,T,T,T,T,T,T,F,不限,F,F,T,"1",T,T,T,T,T,T,F,T,T,T,T,T,F,23.049192,120.1714,"67000350047",淵中里
"6080",臺南市,臺南市安南區,"1","3900",F,"0",T,650,電梯大樓,分租套房,F,"1","4","3",6,T,F,T,F,F,T,T,T,T,T,T,T,T,F,不限,F,F,T,"1",T,T,T,T,T,T,F,T,T,T,T,T,F,23.049192,120.1714,"67000350047",淵中里
"6087",臺南市,臺南市安南區,"1","3900",F,"0",T,650,電梯大樓,分租套房,F,"3","4","1",6,T,F,T,F,F,T,T,T,T,T,T,T,T,F,不限,F,F,T,"1",T,T,T,T,T,T,F,T,T,T,T,T,F,23.0520248,120.1648178,"67000350021",淵西里
"6090",臺南市,臺南市安南區,"1","3900",F,"0",T,650,電梯大樓,分租套房,F,"1","4","3",6,T,F,T,F,F,T,T,F,T,T,T,T,T,F,不限,F,F,T,"1",F,T,T,T,T,T,F,T,T,T,T,T,F,23.0491962,120.171257,"67000350047",淵中里
"6095",臺南市,臺南市永康區,"1","5300",F,"0",T,883.333,電梯大樓,分租套房,F,"5","5","0",6,T,F,T,F,F,T,T,F,T,T,F,T,T,F,不限,F,F,F,"1",T,T,T,T,T,T,F,T,T,T,T,T,F,23.0400777,120.2402866,"67000310010",塩行里
"6103",臺南市,臺南市永康區,"1","20000",F,"0",F,384.615,透天,整層住家,F,"0","4","4",52,T,T,T,T,T,T,T,T,T,T,T,T,T,F,不限,T,F,T,"1",T,T,T,F,T,T,F,T,F,F,F,F,F,22.9997093,120.2444652,"67000310028",光復里
"6146",臺南市,臺南市永康區,"1","7000",T,"300",F,608.333,電梯大樓,整層住家,F,"9","13","4",12,T,T,T,T,T,F,T,F,T,T,T,F,T,F,不限,F,T,T,"2",T,T,T,F,T,T,T,F,T,T,F,F,F,23.0176166,120.2620784,"67000310003",永康里
"6150",臺南市,臺南市東區,"1","6000",F,"0",F,750,透天,獨立套房,F,"4","4","0",8,T,F,T,F,F,T,T,T,T,T,T,T,T,F,不限,F,F,T,"2",T,T,T,T,T,T,F,F,T,T,T,T,F,22.9696549,120.2288175,"67000320041",崇文里
"6282",臺南市,臺南市東區,"1","4000",F,"0",F,800,透天,獨立套房,F,"3","4","1",5,T,T,T,F,T,T,T,T,T,T,T,T,T,T,限女,F,F,T,"0",T,T,T,T,T,T,T,T,T,T,T,F,F,22.998822,120.2296758,"67000320027",莊敬里
"6492",臺南市,臺南市安平區,"1","24000",T,"1720",F,987.711,電梯大樓,整層住家,F,"12","14","2",26.04,T,T,T,T,T,T,T,T,T,T,T,F,T,F,不限,T,T,T,"2",T,T,T,F,T,T,F,T,T,F,F,F,T,22.9902151,120.1646041,"67000360011",育平里
"6507",臺南市,臺南市安南區,"1","4300",F,"0",F,1075,透天,分租套房,T,"3","2","-1",4,T,F,T,F,F,F,F,F,T,T,F,T,T,F,不限,F,F,F,"0",T,T,T,T,T,T,F,F,T,T,T,T,F,23.0265261,120.2111759,"67000350038",溪北里
"6510",臺南市,臺南市南區,"1","6500",F,"0",F,928.571,電梯大樓,分租套房,F,"9","10","1",7,T,F,T,T,F,T,T,T,T,T,T,T,T,T,限女,F,F,T,"2",T,T,T,T,T,T,T,T,T,T,F,T,F,22.984825,120.1981009,"67000370042",小西門里
"6514",臺南市,臺南市中西區,"1","6000",F,"0",F,616.65,電梯大樓,獨立套房,F,"11","11","0",9.73,T,T,T,T,F,T,T,T,T,F,F,F,T,F,不限,T,F,T,"2",T,T,T,T,F,T,F,T,F,T,F,F,F,22.9926052,120.1939316,"67000370046",府前里
"6601",臺南市,臺南市永康區,"2","25000",F,"0",T,1319.96,電梯大樓,整層住家,F,"19","23","4",18.94,T,T,T,T,T,T,T,F,T,T,F,T,F,F,不限,T,F,T,"2",T,T,T,T,T,T,T,T,T,T,F,F,T,23.022682,120.2361946,"67000310033",東橋里
"6606",臺南市,臺南市北區,"2","7500",F,"0",F,711.575,電梯大樓,獨立套房,F,"9","18","9",10.54,T,T,T,T,T,T,T,T,T,T,T,T,F,F,不限,F,F,T,"0",T,T,T,T,T,T,T,T,T,T,F,F,F,23.004038,120.202873,"67000340020",和順里
"6719",臺南市,臺南市永康區,"1","3800",T,"500",T,860,電梯大樓,獨立套房,F,"5","6","1",5,T,T,T,T,T,T,F,F,T,F,T,T,T,F,不限,F,F,T,"2",T,T,T,T,T,T,T,T,T,T,T,T,F,23.0021769,120.2613968,"67000310015",南灣里
"6720",臺南市,臺南市永康區,"1","4000",T,"600",T,920,電梯大樓,獨立套房,F,"7","8","1",5,T,T,T,T,T,T,F,F,T,F,T,T,T,F,不限,F,F,T,"2",T,T,T,T,T,T,T,T,T,T,T,T,F,23.0423927,120.2337536,"67000310029",塩洲里
"6724",臺南市,臺南市永康區,"1","4500",T,"600",T,1020,電梯大樓,獨立套房,F,"1","5","4",5,T,T,T,T,T,T,T,T,T,T,T,T,T,F,不限,F,F,T,"2",T,T,T,T,T,T,T,F,T,T,T,T,F,23.0151106,120.2451896,"67000310037",復華里
"6766",臺南市,臺南市東區,"1","30000",T,"2016",T,1241.89,電梯大樓,整層住家,F,"12","14","2",25.78,T,T,T,T,T,T,T,T,T,T,T,T,T,F,不限,T,F,T,"2",T,T,T,T,T,T,T,T,T,T,F,F,T,22.9835885,120.2230538,"67000320024",龍山里
"6863",臺南市,臺南市北區,"1","32000",F,"0",T,640,透天,整層住家,F,"0","4","4",50,T,T,T,T,T,T,T,T,T,T,T,T,T,F,不限,T,T,T,"2",T,T,T,T,T,T,T,F,T,T,F,F,F,23.01113,120.2037577,"67000340040",成德里
"6867",臺南市,臺南市永康區,"1","5500",F,"0",F,458.333,透天,獨立套房,F,"1","4","3",12,T,F,T,F,F,T,T,F,T,T,F,T,T,F,不限,F,F,T,"0",T,T,T,T,T,T,T,T,T,T,T,T,F,23.0176993,120.2406369,"67000310030",二王里
"7063",臺南市,臺南市永康區,"2","25000",F,"0",T,613.648,電梯大樓,整層住家,F,"11","15","4",40.74,T,T,T,T,T,T,T,T,T,T,F,T,T,F,不限,T,T,F,"0",T,T,T,T,T,T,F,T,T,T,F,F,T,23.0265137,120.2352942,"67000310033",東橋里
"7092",臺南市,臺南市北區,"1","4300",F,"0",F,1075,透天,分租套房,F,"1","4","3",4,T,F,T,F,F,T,T,T,T,T,F,T,T,F,不限,F,F,T,"2",T,T,T,T,T,T,F,T,T,T,T,T,F,23.0046759,120.2194058,"67000340008",仁愛里
"7106",臺南市,臺南市北區,"1","4200",F,"0",F,840,透天,獨立套房,F,"3","3","0",5,T,F,T,F,F,T,T,T,T,T,F,T,T,F,不限,F,F,F,"1",T,T,T,T,T,T,F,T,T,T,T,T,F,23.0056892,120.2289829,"67000340005",力行里
"7136",臺南市,臺南市永康區,"1","7000",F,"0",F,875,透天,分租套房,F,"3","3","0",8,T,F,T,F,F,T,T,T,T,T,T,T,T,F,不限,F,T,T,"2",T,T,T,T,T,T,F,T,T,T,T,T,F,23.0085111,120.236772,"67000310025",中興里
"7140",臺南市,臺南市安平區,"1","26500",F,"0",T,1818.81,電梯大樓,整層住家,F,"22","23","1",14.57,T,T,T,T,T,T,T,T,T,T,T,T,T,F,不限,T,T,T,"2",T,T,T,T,T,T,T,T,T,T,F,F,T,22.9912446,120.1677682,"67000360011",育平里
"7186",臺南市,臺南市東區,"1","4500",F,"0",F,666.667,公寓,分租套房,F,"3","5","2",6,T,F,T,F,T,T,T,T,T,T,T,T,T,F,不限,F,F,F,"0",T,T,T,T,T,T,F,T,T,T,T,F,F,22.990845,120.222569,"67000320010",中西里
"7299",臺南市,臺南市安平區,"1","15000",T,"1225",T,705.435,電梯大樓,獨立套房,F,"10","14","4",23,T,T,T,T,T,F,T,F,T,F,T,F,T,F,不限,T,F,T,"0",T,T,T,T,T,T,T,F,T,T,F,F,F,22.9922606,120.1681159,"67000360008",平通里
"7333",臺南市,臺南市東區,"1","18000",F,"0",F,568.003,公寓,整層住家,F,"2","10","8",31.69,T,T,T,T,T,T,T,T,T,T,T,T,T,F,不限,T,F,T,"0",T,T,T,T,T,T,T,T,T,T,F,F,T,22.9749958,120.2365213,"67000320014",和平里
"7441",臺南市,臺南市中西區,"1","5500",F,"0",F,550,透天,獨立套房,F,"3","4","1",10,T,F,T,F,F,T,T,T,T,T,T,T,T,F,不限,F,F,T,"0",T,T,T,T,T,T,F,F,T,F,T,T,F,22.9914042,120.1938404,"67000370046",府前里
"7624",臺南市,臺南市永康區,"1","4500",F,"0",F,1125,透天,獨立套房,F,"5","5","0",4,T,F,T,F,F,T,T,T,T,T,T,T,T,F,不限,F,F,T,"1",T,T,T,T,T,T,F,T,T,T,T,T,F,23.0005655,120.2567041,"67000310016",崑山里
"7692",臺南市,臺南市北區,"1","17000",F,"0",F,664.842,透天,整層住家,F,"1","1","0",25.57,T,T,T,T,T,T,T,T,T,T,T,T,F,F,不限,T,F,T,"2",F,F,F,F,T,T,F,T,T,F,F,F,T,23.0167225,120.2194733,"67000340039",永祥里
"7718",臺南市,臺南市南區,"1","25000",F,"0",F,312.5,透天,整層住家,F,"0","4","4",80,T,T,T,T,T,T,T,T,T,T,T,T,T,F,不限,T,T,T,"2",T,T,T,T,T,T,T,T,T,T,F,F,T,22.9855838,120.1885188,"67000330027",文華里
"7859",臺南市,臺南市北區,"1","5600",F,"0",F,700,透天,獨立套房,F,"4","5","1",8,T,F,T,F,F,T,T,T,T,T,T,T,T,F,不限,F,F,F,"0",T,T,T,T,T,T,F,T,T,T,T,T,F,23.0046031,120.2008241,"67000340020",和順里
"7861",臺南市,臺南市北區,"2","6500",F,"0",F,928.571,透天,獨立套房,F,"1","2","1",7,T,F,T,F,F,T,T,T,T,T,T,T,T,F,不限,F,F,F,"0",T,T,T,T,T,T,F,T,T,T,T,T,F,23.012431,120.221709,"67000340001",開元里
"7875",臺南市,臺南市北區,"1","24800",F,"0",T,873.239,電梯大樓,整層住家,F,"5","14","9",28.4,T,T,T,T,T,T,T,F,T,F,F,F,T,F,不限,T,F,T,"2",T,T,T,T,T,T,T,T,T,T,F,F,T,23.021005,120.2071136,"67000340024",成功里
"7893",臺南市,臺南市永康區,"1","4500",F,"0",F,642.857,透天,獨立套房,F,"2","5","3",7,T,F,T,F,F,T,T,T,T,T,F,T,T,F,不限,F,F,T,"0",T,T,T,T,T,T,F,T,T,T,T,T,F,22.9957978,120.2494298,"67000310021",建國里
"7923",臺南市,臺南市安平區,"1","5000",T,"600",F,800,電梯大樓,獨立套房,F,"10","13","3",7,T,T,T,T,T,T,T,T,T,T,T,T,T,F,不限,F,F,T,"1",T,T,T,T,T,T,F,T,T,T,F,F,F,22.9969158,120.1767197,"67000360006",怡平里
"7952",臺南市,臺南市中西區,"1","4500",F,"0",F,562.5,電梯大樓,分租套房,F,"4","7","3",8,F,F,F,T,F,T,T,T,T,T,T,T,T,T,限女,T,F,T,"0",T,T,T,T,T,T,T,T,T,T,F,T,T,22.9975781,120.1895661,"67000370022",藥王里
"7974",臺南市,臺南市永康區,"1","5500",F,"0",F,550,透天,獨立套房,F,"1","3","2",10,T,T,T,F,T,T,T,F,T,T,T,F,T,F,不限,F,F,T,"1",T,T,T,T,T,T,F,T,T,T,T,T,F,23.010686,120.25784,"67000310014",西灣里
"8031",臺南市,臺南市南區,"1","6500",F,"0",F,650,透天,分租套房,F,"2","2","0",10,T,F,T,F,F,T,T,F,T,T,F,F,T,F,不限,F,T,F,"0",T,T,T,T,T,T,F,T,T,T,T,T,F,22.9656221,120.2111833,"67000330023",大恩里
"8096",臺南市,臺南市東區,"1","16000",F,"0",T,640,公寓,整層住家,F,"9","11","2",25,T,T,T,T,T,T,T,T,T,T,T,T,T,F,不限,T,F,T,"0",T,T,T,T,T,T,T,T,T,T,T,T,T,22.9788461,120.2134619,"67000320015",路東里
"8112",臺南市,臺南市永康區,"1","28000",T,"3000",T,620.248,電梯大樓,整層住家,F,"2","18","16",49.98,T,T,T,T,T,T,T,F,T,T,T,T,T,F,不限,T,F,T,"2",F,F,F,F,T,T,F,F,F,T,F,F,T,23.0227547,120.2351653,"67000310033",東橋里
"8130",臺南市,臺南市永康區,"1","6000",F,"0",F,600,透天,獨立套房,F,"4","6","2",10,T,F,T,F,F,T,T,F,T,T,T,T,T,F,不限,F,F,T,"2",T,T,T,T,T,T,F,T,T,T,T,T,F,23.021758,120.248194,"67000310033",東橋里
"8144",臺南市,臺南市東區,"1","4300",F,"0",F,716.667,公寓,獨立套房,F,"4","5","1",6,T,F,T,F,F,T,T,F,T,T,T,T,T,F,不限,F,F,T,"0",T,T,T,T,T,T,F,T,T,T,T,T,F,22.9895391,120.227258,"67000320030",崇誨里
"8232",臺南市,臺南市中西區,"2","5700",F,"0",F,814.286,電梯大樓,獨立套房,F,"2","5","3",7,T,T,T,T,T,F,T,T,T,F,F,T,T,F,不限,F,F,T,"0",T,T,F,F,T,T,F,T,T,T,F,F,F,22.9943281,120.2057678,"67000370005",赤嵌里
"8250",臺南市,臺南市安平區,"1","6700",F,"0",F,670,電梯大樓,獨立套房,F,"6","6","0",10,T,T,T,T,T,T,T,T,T,F,T,T,T,F,不限,F,F,T,"0",T,T,T,T,T,T,F,T,T,T,F,F,F,22.9884127,120.185705,"67000360009",文平里
"8257",臺南市,臺南市東區,"1","7500",F,"0",F,833.333,透天,獨立套房,F,"3","3","0",9,T,F,T,F,F,T,T,T,T,T,T,T,T,F,不限,F,T,F,"2",T,T,T,T,T,T,T,F,T,T,T,T,F,22.979306,120.226727,"67000320040",崇信里
"8260",臺南市,臺南市永康區,"1","4500",F,"0",F,750,電梯大樓,獨立套房,F,"2","7","5",6,T,F,F,F,T,T,F,T,T,T,F,T,T,F,不限,F,F,F,"0",T,T,T,F,T,T,F,T,T,T,T,F,F,23.0113817,120.2299661,"67000310031",六合里
"8286",臺南市,臺南市東區,"1","6500",F,"0",F,928.571,透天,獨立套房,F,"4","5","1",7,T,F,T,F,T,T,T,T,T,T,T,T,T,F,不限,F,F,T,"1",T,T,T,T,T,T,F,T,T,T,T,F,F,22.9936901,120.2146292,"67000320037",成大里
"8291",臺南市,臺南市中西區,"1","6500",F,"0",T,1083.33,公寓,獨立套房,F,"3","5","2",6,T,T,T,F,T,T,T,T,T,T,T,T,T,F,不限,F,F,T,"1",T,T,T,T,T,T,F,T,T,T,T,F,F,22.9951334,120.2102856,"67000370039",城隍里
"8347",臺南市,臺南市東區,"1","12000",F,"0",F,1200,公寓,獨立套房,F,"1","4","3",10,T,F,T,F,F,T,T,T,T,T,T,T,T,F,不限,F,F,T,"0",T,T,T,T,T,T,T,T,T,T,T,T,F,22.9807622,120.228409,"67000320040",崇信里
"8349",臺南市,臺南市東區,"1","9000",F,"0",F,900,公寓,獨立套房,F,"3","4","1",10,T,F,T,F,F,T,T,T,T,T,T,T,T,F,不限,F,F,T,"0",T,T,T,T,T,T,T,T,T,T,T,T,F,22.9807622,120.228409,"67000320040",崇信里
"8352",臺南市,臺南市中西區,"1","7000",F,"0",F,875,電梯大樓,獨立套房,F,"4","9","5",8,T,T,T,T,T,T,T,T,T,T,T,T,T,F,不限,T,F,T,"0",T,T,T,T,T,T,F,T,T,T,F,T,F,22.9952414,120.1985053,"67000370043",五條港里
"8567",臺南市,臺南市永康區,"1","6200",F,"0",T,516.667,電梯大樓,獨立套房,F,"9","9","0",12,T,T,T,T,T,T,F,F,T,T,T,F,F,F,不限,F,F,T,"1",T,T,T,T,T,T,F,T,T,T,F,F,F,23.0398351,120.2413081,"67000310010",塩行里
"8746",臺南市,臺南市永康區,"1","17000",T,"1560",T,683.656,電梯大樓,整層住家,F,"8","11","3",22,T,T,T,T,T,T,F,F,T,T,T,T,T,F,不限,T,T,T,"0",T,T,T,T,T,T,T,T,T,T,T,T,T,23.0435418,120.2335354,"67000310029",塩洲里
"8760",臺南市,臺南市北區,"2","7400",F,"0",F,370,透天,整層住家,F,"4","5","1",20,T,T,T,F,F,T,T,T,T,T,T,T,T,F,不限,T,T,T,"1",T,T,T,T,T,T,T,T,T,T,T,T,F,23.0048012,120.1948992,"67000340041",文成里
"8779",臺南市,臺南市南區,"1","6000",F,"0",F,857.143,公寓,獨立套房,F,"5","5","0",7,T,F,T,F,F,T,T,T,T,T,T,T,T,F,不限,T,T,T,"0",T,T,T,T,T,T,T,T,T,T,T,T,F,22.962214,120.187298,"67000330039",南華里
"8913",臺南市,臺南市東區,"1","3800",F,"0",T,1085.71,透天,雅房,F,"1","5","4",3,F,F,T,F,F,T,T,T,T,T,T,T,T,F,不限,T,F,T,"0",T,T,T,T,T,T,F,F,T,T,T,T,F,22.9834142,120.2417531,"67000320045",文聖里
"9013",臺南市,臺南市永康區,"1","2800",T,"150",F,983.333,透天,獨立套房,F,"2","3","1",3,T,F,T,F,T,T,F,F,T,F,F,F,T,F,不限,F,F,F,"0",T,T,T,F,T,T,F,T,T,T,T,F,F,23.039306,120.240628,"67000310010",塩行里
"9027",臺南市,臺南市東區,"1","5400",F,"0",F,1080,電梯大樓,分租套房,F,"1","9","8",5,T,F,T,F,F,T,T,T,T,T,T,T,T,F,不限,F,F,T,"0",T,T,T,T,T,T,F,T,T,T,T,T,F,22.9925295,120.2163734,"67000320037",成大里
"9053",臺南市,臺南市永康區,"1","25000",F,"0",T,1005.63,電梯大樓,整層住家,F,"2","18","16",24.86,T,T,T,T,T,T,T,T,T,T,T,T,T,F,不限,T,F,T,"2",F,F,F,F,T,T,F,F,F,T,F,F,T,23.0226911,120.2351017,"67000310033",東橋里
"9064",臺南市,臺南市永康區,"1","30000",T,"2746",T,595.924,電梯大樓,整層住家,F,"5","20","15",54.95,T,T,T,T,T,T,T,F,T,T,F,T,T,F,不限,T,F,T,"2",T,T,T,T,T,T,T,T,T,T,F,F,T,23.0201879,120.2331169,"67000310033",東橋里
"9066",臺南市,臺南市中西區,"2","14000",F,"0",F,1026.39,電梯大樓,獨立套房,F,"8","12","4",13.64,T,T,T,T,T,T,T,T,T,T,T,T,F,F,不限,T,T,T,"2",T,T,T,T,T,T,T,T,T,T,F,F,F,22.9954443,120.1952899,"67000370045",淺草里
"9139",臺南市,臺南市東區,"1","15000",T,"1108",T,726.567,公寓,整層住家,F,"5","24","19",22.2,T,T,T,T,T,T,T,T,T,T,T,T,T,F,不限,T,F,T,"1",T,T,T,T,T,T,T,T,T,T,F,F,T,22.9678459,120.2150401,"67000330023",大恩里
"9150",臺南市,臺南市東區,"1","27000",F,"0",F,850.394,電梯大樓,整層住家,F,"11","13","2",31.75,T,T,T,T,T,T,T,T,T,T,T,T,T,F,不限,T,F,T,"2",T,T,T,T,T,T,T,T,T,T,F,F,F,22.9843179,120.2238104,"67000320024",龍山里
"9201",臺南市,臺南市東區,"1","15000",T,"1700",F,668,電梯大樓,整層住家,F,"9","24","15",25,T,T,T,T,T,T,T,F,T,F,F,T,T,F,不限,T,T,T,"1",T,T,T,F,F,F,T,F,T,F,F,F,F,22.9678459,120.2150401,"67000330023",大恩里
"9240",臺南市,臺南市永康區,"1","21000",T,"2250",T,775,電梯大樓,整層住家,F,"11","18","7",30,T,T,T,T,T,T,T,T,T,T,T,T,T,F,不限,T,F,T,"2",T,T,T,T,T,T,T,T,T,T,F,F,T,22.9982115,120.2341564,"67000320027",莊敬里
"9281",臺南市,臺南市永康區,"1","4900",F,"0",F,980,透天,獨立套房,F,"1","2","1",5,T,F,T,F,T,T,T,T,T,T,T,T,T,T,限女,F,F,T,"0",T,T,T,F,T,T,F,T,T,T,T,T,F,23.0018475,120.2291178,"67000310026",勝利里
"9361",臺南市,臺南市安平區,"1","30000",F,"0",T,655.451,電梯大樓,整層住家,F,"11","23","12",45.77,T,T,T,T,T,T,T,T,T,F,F,F,T,F,不限,T,F,T,"2",T,T,T,T,T,T,T,T,T,T,F,F,T,22.9907038,120.1669587,"67000360011",育平里
"9369",臺南市,臺南市永康區,"1","4800",F,"0",T,533.333,透天,獨立套房,F,"4","4","0",9,T,F,T,F,F,T,T,F,T,T,F,F,T,F,不限,F,F,T,"0",T,T,T,T,T,T,F,T,T,T,T,T,F,23.033222,120.269604,"67000310006",王行里
"9403",臺南市,臺南市安平區,"1","30000",F,"0",T,682.905,電梯大樓,整層住家,F,"11","23","12",43.93,T,T,T,T,T,T,T,F,T,T,F,F,T,F,不限,T,T,T,"2",T,T,T,T,T,T,T,T,T,T,F,F,T,22.9903152,120.1671877,"67000360011",育平里
"9441",臺南市,臺南市北區,"1","27000",T,"2200",F,811.111,電梯大樓,整層住家,F,"11","19","8",36,T,T,T,T,T,T,T,T,T,T,T,T,T,F,不限,T,F,T,"1",T,T,T,T,T,T,T,T,T,T,F,F,T,23.0093923,120.2237192,"67000340045",合興里
"9509",臺南市,臺南市南區,"1","3650",F,"0",F,912.5,透天,獨立套房,F,"5","6","1",4,T,F,F,F,F,T,T,T,T,F,F,F,T,T,限男,F,F,F,"0",T,T,T,T,T,T,F,T,T,T,T,T,F,22.9815703,120.1940993,"67000330005",廣州里
"9540",臺南市,臺南市安平區,"1","20000",F,"0",T,540.541,電梯大樓,整層住家,F,"9","9","0",37,T,T,T,T,T,T,T,T,T,T,T,T,F,F,不限,T,F,F,"1",T,T,T,T,T,T,T,F,T,T,F,F,T,22.992044,120.168718,"67000360008",平通里
"9545",臺南市,臺南市中西區,"2","6500",T,"550",F,587.5,電梯大樓,獨立套房,F,"5","18","13",12,T,T,T,T,T,T,T,T,T,T,T,T,T,T,限女,T,F,T,"2",T,F,F,T,T,T,F,T,T,F,F,F,F,22.988371,120.191985,"67000370047",南廠里
"9549",臺南市,臺南市中西區,"1","7500",F,"0",F,833.333,電梯大樓,獨立套房,F,"9","12","3",9,T,F,T,F,F,T,T,T,T,T,T,T,T,T,限女,F,F,T,"0",T,T,T,T,T,T,F,T,T,T,T,T,T,22.990315,120.192714,"67000370047",南廠里
"9629",臺南市,臺南市東區,"2","6000",F,"0",F,600,公寓,整層住家,T,"8","7","-1",10,T,T,T,T,T,T,T,T,T,T,T,T,T,F,不限,F,F,T,"2",T,T,T,T,T,T,T,T,T,T,F,F,F,22.9868355,120.2147217,"67000320005",泉南里
"9651",臺南市,臺南市永康區,"1","22000",F,"0",F,1436.97,電梯大樓,整層住家,F,"9","18","9",15.31,T,T,T,T,T,T,T,F,T,F,F,F,T,F,不限,T,F,T,"1",T,F,T,T,T,T,T,F,T,T,F,F,F,23.0236197,120.2360345,"67000310033",東橋里
"9658",臺南市,臺南市中西區,"1","13500",F,"0",F,385.714,電梯大樓,整層住家,F,"5","12","7",35,T,T,T,T,T,T,T,T,T,T,T,F,T,F,不限,T,T,T,"0",F,F,F,F,T,F,F,F,F,F,F,F,F,23.005973,120.1923691,"67000340018",大豐里
"9668",臺南市,臺南市永康區,"1","17000",F,"0",T,425,透天,整層住家,F,"0","2","2",40,T,T,T,T,T,F,F,F,T,T,F,F,F,F,不限,T,T,T,"0",F,T,T,F,T,F,F,T,F,T,F,F,F,23.035072,120.2509189,"67000310038",正強里
"9703",臺南市,臺南市中西區,"1","6600",F,"0",F,733.333,電梯大樓,獨立套房,F,"4","5","1",9,T,T,T,T,T,T,T,T,T,T,T,T,T,F,不限,T,F,T,"0",T,T,F,T,T,T,T,T,T,T,F,F,F,22.9998259,120.1944009,"67000370044",兌悅里
"9786",臺南市,臺南市永康區,"1","4000",F,"0",F,571.429,透天,獨立套房,F,"5","5","0",7,T,F,T,F,F,T,T,F,T,T,T,T,T,F,不限,F,T,T,"0",T,T,T,T,T,T,F,F,T,T,T,T,F,23.0380535,120.2426778,"67000310010",塩行里
"9788",臺南市,臺南市東區,"1","7500",F,"0",F,750,透天,分租套房,F,"2","4","2",10,T,T,T,F,F,T,T,F,T,T,F,T,F,F,不限,F,F,T,"0",T,T,T,T,T,T,F,T,T,T,T,T,F,22.9618522,120.2323015,"67000320003",大智里
"9909",臺南市,臺南市東區,"1","4800",F,"0",F,600,透天,獨立套房,F,"2","3","1",8,T,T,T,F,F,T,T,T,T,T,T,T,T,T,限女,F,F,T,"0",T,T,T,T,T,T,T,T,T,F,T,T,F,22.985298,120.225078,"67000320009",新東里
"9953",臺南市,臺南市東區,"1","10000",F,"0",F,125,透天,整層住家,F,"2","4","2",80,T,T,T,T,T,T,T,T,T,T,T,T,T,F,不限,T,F,T,"2",F,F,F,F,T,T,F,F,F,F,F,F,F,22.9757341,120.225434,"67000320032",崇德里
"10111",臺南市,臺南市永康區,"1","4500",F,"0",F,642.857,透天,獨立套房,F,"4","4","0",7,T,F,T,F,T,T,T,F,T,T,T,F,F,T,限男,F,T,T,"0",T,T,F,T,T,T,F,T,T,T,T,F,F,23.0450831,120.240891,"67000310043",塩興里
"10154",臺南市,臺南市南區,"1","5000",F,"0",F,1000,透天,獨立套房,F,"3","3","0",5,T,T,T,F,F,T,T,F,T,T,F,T,T,F,不限,F,F,T,"0",T,T,T,T,T,T,F,T,T,T,T,T,F,22.9649001,120.1919955,"67000330026",明興里
"10231",臺南市,臺南市北區,"1","15000",F,"0",F,300,透天,整層住家,F,"2","2","0",50,T,T,T,T,T,T,T,T,T,T,T,T,T,F,不限,T,T,T,"2",F,F,F,F,T,F,F,F,F,F,F,F,F,23.0022691,120.195783,"67000340054",立人里
"10291",臺南市,臺南市東區,"1","5800",F,"0",F,828.571,透天,分租套房,F,"2","3","1",7,T,T,T,F,F,T,F,T,T,T,F,F,T,F,不限,F,F,T,"0",T,T,T,T,T,T,F,T,T,T,T,T,F,22.988675,120.2281191,"67000320002",裕農里
"10313",臺南市,臺南市安平區,"1","7500",F,"0",F,736.739,公寓,獨立套房,F,"4","7","3",10.18,T,T,T,T,T,T,T,T,T,T,T,T,T,F,不限,T,F,T,"2",T,T,T,F,F,F,F,T,T,T,F,F,T,22.9877702,120.1800764,"67000360009",文平里
"10316",臺南市,臺南市東區,"1","5000",T,"450",F,1184.78,電梯大樓,獨立套房,F,"4","7","3",4.6,T,T,T,T,F,T,T,T,T,T,T,T,T,F,不限,F,T,F,"2",T,T,T,T,T,T,F,T,T,T,F,T,F,22.9876732,120.2306752,"67000320002",裕農里
"10436",臺南市,臺南市安南區,"1","7000",F,"0",F,875,透天,獨立套房,F,"2","4","2",8,T,T,T,F,F,T,T,F,T,T,T,F,T,F,不限,F,F,T,"0",T,F,T,T,F,T,F,T,T,T,T,T,F,23.0473346,120.1914365,"67000350011",原佃里
"10498",臺南市,臺南市東區,"1","7500",F,"0",F,1250,透天,獨立套房,F,"3","3","0",6,T,T,T,F,F,T,T,T,T,T,T,T,T,F,不限,F,F,T,"0",T,T,T,T,T,T,F,T,T,T,T,T,F,22.9865934,120.2276756,"67000320002",裕農里
"10566",臺南市,臺南市安南區,"1","3500",F,"0",T,700,透天,獨立套房,F,"2","4","2",5,T,F,T,F,F,T,T,F,T,T,T,T,F,F,不限,F,F,T,"0",T,T,T,T,T,T,F,T,T,T,T,T,F,23.0640326,120.1738963,"67000350023",佃西里
"10603",臺南市,臺南市永康區,"1","12000",F,"0",F,666.667,透天,分租套房,F,"4","4","0",18,T,T,T,F,F,T,T,T,T,T,F,T,F,F,不限,F,F,T,"0",T,T,T,T,T,T,T,T,T,T,T,T,F,23.015912,120.22765,"67000310034",安康里
"10632",臺南市,臺南市東區,"1","7800",T,"640",F,703.333,電梯大樓,整層住家,F,"4","14","10",12,T,T,T,T,T,T,T,T,T,T,T,T,T,F,不限,T,F,T,"0",T,T,T,T,T,T,T,T,T,T,F,F,F,22.9857194,120.233648,"67000320034",東聖里
"10638",臺南市,臺南市北區,"1","14000",F,"0",F,731.707,電梯大樓,整層住家,F,"3","10","7",20.5,T,T,T,T,T,T,T,T,T,T,T,T,T,F,不限,T,F,T,"2",T,T,T,T,T,T,T,T,T,F,F,F,F,22.9983521,120.2072525,"67000340033",公園里
"10778",臺南市,臺南市永康區,"1","5000",F,"0",F,714.286,電梯大樓,分租套房,F,"2","7","5",7,T,T,F,F,F,T,T,F,T,T,T,T,F,F,不限,F,F,T,"0",T,T,T,T,T,T,T,T,T,T,T,T,F,23.0132106,120.2312315,"67000310001",五王里
"10784",臺南市,臺南市北區,"1","5000",F,"0",F,1000,透天,分租套房,F,"2","3","1",5,T,T,T,F,F,T,T,T,T,T,T,T,T,F,不限,F,F,F,"0",T,T,T,T,T,T,F,T,T,T,T,T,F,23.0143889,120.2111692,"67000340023",正覺里
"10802",臺南市,臺南市中西區,"1","13000",F,"0",F,866.667,透天,分租套房,F,"3","5","2",15,T,T,T,F,F,T,T,T,T,T,T,T,T,F,不限,F,T,F,"0",T,T,T,T,T,T,T,T,T,T,T,T,F,22.9814064,120.2108799,"67000370009",法華里
"10819",臺南市,臺南市東區,"1","5300",F,"0",T,662.5,透天,獨立套房,F,"3","4","1",8,F,F,T,F,F,T,T,T,T,T,T,T,T,T,限女,F,T,T,"0",T,T,T,T,T,T,F,T,T,T,T,T,F,22.976731,120.222359,"67000320004",崇學里
"10823",臺南市,臺南市安平區,"1","8000",F,"0",T,1142.86,電梯大樓,獨立套房,F,"8","9","1",7,T,T,T,T,T,F,T,F,F,F,F,F,F,F,不限,F,T,T,"0",T,F,F,T,T,T,F,T,T,T,F,F,F,22.9938542,120.1724857,"67000360007",華平里
"10869",臺南市,臺南市北區,"1","18800",F,"0",F,284.848,透天,整層住家,F,"0","3","3",66,T,T,T,T,T,T,T,F,T,T,T,T,T,F,不限,T,T,T,"0",F,F,F,F,T,F,F,F,F,F,F,F,F,23.0153355,120.2107054,"67000340023",正覺里
"10870",臺南市,臺南市北區,"1","6200",F,"0",F,516.667,透天,整層住家,F,"1","3","2",12,T,T,T,F,F,T,T,T,T,T,T,T,T,F,不限,F,F,T,"0",T,T,T,T,T,T,T,T,T,T,T,T,F,23.009219,120.225409,"67000340045",合興里
"10880",臺南市,臺南市南區,"1","4500",T,"500",F,1000,電梯大樓,獨立套房,F,"1","5","4",5,T,T,T,T,F,T,T,T,T,F,T,T,T,F,不限,T,T,F,"0",T,T,T,T,T,T,F,F,T,T,F,T,F,22.9841266,120.1977382,"67000370042",小西門里
"10883",臺南市,臺南市北區,"2","20000",F,"0",T,833.333,透天,整層住家,F,"0","2","2",24,T,T,T,T,T,T,T,T,T,F,T,T,T,F,不限,T,T,T,"2",F,F,F,F,T,F,F,F,F,F,F,F,F,23.0137814,120.2242069,"67000340001",開元里
"10893",臺南市,臺南市東區,"1","4200",F,"0",F,700,透天,獨立套房,F,"4","4","0",6,T,T,T,F,F,T,T,T,T,F,F,T,T,F,不限,F,F,T,"0",T,T,T,T,F,T,F,T,T,T,T,T,F,22.9964638,120.2189057,"67000320023",大學里
"10973",臺南市,臺南市東區,"1","5000",F,"0",F,500,透天,獨立套房,F,"3","4","1",10,T,F,T,F,T,T,T,T,T,T,T,T,T,F,不限,F,F,T,"0",T,T,T,T,T,T,F,T,T,T,T,F,F,22.9770889,120.2222824,"67000320004",崇學里
"11005",臺南市,臺南市北區,"1","26000",F,"0",T,902.464,電梯大樓,整層住家,F,"12","19","7",28.81,T,T,T,T,T,T,T,T,T,T,T,T,T,F,不限,T,F,T,"2",T,T,T,T,T,T,T,T,T,T,F,F,F,23.011889,120.2243219,"67000340038",元寶里
"11054",臺南市,臺南市東區,"1","23000",F,"0",T,566.502,電梯大樓,整層住家,F,"2","5","3",40.6,T,T,T,T,T,T,T,T,T,T,F,F,F,F,不限,T,F,T,"2",T,T,T,T,T,T,T,F,T,F,F,F,F,22.9718961,120.2149592,"67000320012",崇明里
"11136",臺南市,臺南市東區,"1","19800",F,"0",T,550,電梯大樓,整層住家,F,"8","14","6",36,T,T,T,T,T,T,T,T,T,T,F,T,T,F,不限,T,F,T,"0",T,T,T,T,T,T,T,T,T,T,F,F,T,22.995184,120.234064,"67000320027",莊敬里
"11249",臺南市,臺南市北區,"1","13000",T,"55",F,652.75,公寓,整層住家,F,"3","3","0",20,T,T,T,T,T,T,T,T,T,T,T,T,T,F,不限,T,T,T,"0",T,T,T,T,T,T,T,T,T,T,F,F,F,23.0133331,120.2246609,"67000340038",元寶里
"11329",臺南市,臺南市安平區,"1","80000",T,"12000",T,766.667,電梯大樓,整層住家,F,"5","26","21",120,T,T,T,T,T,T,T,T,T,T,T,T,T,F,不限,T,F,T,"0",T,T,T,F,T,T,T,T,T,T,F,F,T,22.9911352,120.1644404,"67000360011",育平里
"11371",臺南市,臺南市北區,"1","7000",F,"0",F,1000,透天,獨立套房,F,"3","4","1",7,T,T,T,F,T,T,T,F,T,T,T,T,T,F,不限,F,F,T,"0",T,T,T,T,T,T,F,T,T,T,T,F,F,23.0148578,120.1931542,"67000340042",大和里
"11372",臺南市,臺南市永康區,"1","3500",F,"0",F,583.333,透天,獨立套房,F,"3","4","1",6,T,T,T,F,F,T,T,T,T,T,T,T,T,F,不限,F,F,T,"0",T,T,T,T,T,T,F,T,T,T,T,T,F,22.999026,120.235409,"67000310039",中華里
"11399",臺南市,臺南市中西區,"1","10000",F,"0",F,666.667,公寓,獨立套房,F,"2","3","1",15,T,T,T,T,T,T,T,T,T,T,T,T,T,F,不限,T,F,T,"2",T,T,T,T,T,T,F,T,T,T,T,F,F,23.0001392,120.20343,"67000340051",北華里
"11412",臺南市,臺南市安南區,"1","3500",F,"0",F,700,透天,獨立套房,F,"3","3","0",5,T,T,T,F,F,T,T,F,T,T,T,F,T,F,不限,F,F,F,"0",T,T,T,T,T,T,F,T,T,T,T,T,F,23.0648446,120.1774462,"67000350022",佃東里
"11418",臺南市,臺南市永康區,"1","6000",F,"0",T,750,透天,獨立套房,F,"1","2","1",8,T,T,T,F,F,T,T,T,T,T,T,T,T,F,不限,F,F,T,"0",T,T,T,T,T,T,F,T,T,T,T,T,F,22.9989201,120.255559,"67000310016",崑山里
"11424",臺南市,臺南市東區,"1","5500",F,"0",F,611.111,電梯大樓,獨立套房,F,"7","7","0",9,T,T,T,T,T,T,T,T,T,T,T,T,T,F,不限,T,F,F,"0",T,T,T,T,T,T,T,T,T,T,F,F,F,22.9868355,120.2147217,"67000320005",泉南里
"11553",臺南市,臺南市永康區,"1","4500",F,"0",F,1000,公寓,分租套房,F,"5","6","1",4.5,T,F,T,F,T,T,T,T,T,T,T,T,T,F,不限,F,T,T,"0",T,T,T,T,T,T,F,T,T,T,T,T,F,23.0139813,120.2287211,"67000310034",安康里
"11587",臺南市,臺南市永康區,"1","6500",F,"0",T,812.5,透天,獨立套房,F,"3","5","2",8,T,T,T,F,F,T,T,T,T,T,T,T,T,F,不限,F,F,T,"0",T,T,T,T,T,T,T,T,T,T,T,T,F,23.0120947,120.2294196,"67000310031",六合里
"11608",臺南市,臺南市東區,"1","4500",F,"0",T,818.182,透天,分租套房,F,"2","4","2",5.5,T,T,T,F,T,T,T,T,T,T,T,T,T,F,不限,F,F,T,"2",T,T,T,T,T,T,F,T,T,T,T,T,F,22.979008,120.226576,"67000320040",崇信里
"11719",臺南市,臺南市永康區,"1","8000",F,"0",F,592.593,透天,分租套房,F,"3","4","1",13.5,T,F,T,F,F,T,T,F,T,T,T,T,T,F,不限,T,T,T,"2",T,T,T,T,T,F,F,T,T,F,T,F,F,23.0389511,120.2412424,"67000310010",塩行里
"11779",臺南市,臺南市安南區,"1","22000",F,"0",F,314.286,透天,整層住家,F,"0","3","3",70,T,T,T,T,T,T,F,F,F,F,T,F,T,F,不限,T,F,T,"2",T,T,T,F,T,T,T,F,T,F,F,F,F,23.0467223,120.1784816,"67000350047",淵中里
"11829",臺南市,臺南市北區,"1","6000",F,"0",F,900,透天,獨立套房,F,"2","3","1",7,T,F,T,F,F,T,T,T,T,T,T,T,T,F,不限,F,F,T,"0",T,T,T,T,T,T,F,T,T,T,T,T,F,23.0077177,120.2246159,"67000340045",合興里
"11850",臺南市,臺南市永康區,"1","22000",F,"0",T,986.105,公寓,整層住家,F,"8","16","8",22.31,T,T,T,T,T,T,T,T,T,T,T,T,T,F,不限,T,T,T,"2",F,F,F,F,T,T,F,F,F,F,F,F,T,23.0201571,120.2366033,"67000310033",東橋里
"11858",臺南市,臺南市永康區,"1","22000",F,"0",T,880,電梯大樓,整層住家,F,"8","16","8",25,T,T,T,T,T,T,T,T,T,T,T,T,T,F,不限,T,T,T,"2",F,F,F,F,T,T,F,F,F,F,F,F,T,23.0217541,120.2382003,"67000310033",東橋里
"11870",臺南市,臺南市中西區,"1","16000",T,"1180",F,758.499,電梯大樓,整層住家,F,"3","9","6",22.65,T,T,T,T,T,T,T,T,T,T,T,T,T,F,不限,T,F,F,"0",F,F,F,F,T,F,F,F,F,F,F,F,F,22.9869992,120.2035591,"67000370041",南門里
"11902",臺南市,臺南市永康區,"1","5200",F,"0",T,916.667,透天,獨立套房,F,"4","4","0",6,T,F,F,F,F,F,F,F,T,T,F,F,T,F,不限,F,F,T,"1",T,T,T,T,T,T,F,T,T,T,T,T,F,23.0310436,120.2627313,"67000310041",龍埔里
"11909",臺南市,臺南市永康區,"1","25000",F,"0",F,806.452,透天,整層住家,F,"0","2","2",31,T,T,T,T,T,T,T,T,T,T,T,T,T,F,不限,T,T,T,"2",T,T,T,F,T,T,T,T,T,T,F,F,F,23.0042928,120.2474332,"67000310020",復國里
"11939",臺南市,臺南市北區,"1","21000",F,"0",F,1403.74,電梯大樓,整層住家,F,"23","24","1",14.96,T,T,T,T,T,T,T,T,T,T,T,T,T,F,不限,T,F,T,"2",T,T,T,T,T,T,T,T,T,T,F,F,T,23.0086405,120.2218075,"67000340001",開元里
"11948",臺南市,臺南市北區,"1","19000",F,"0",F,987.013,電梯大樓,整層住家,F,"12","24","12",19.25,T,T,T,T,T,T,T,T,T,T,T,T,T,F,不限,T,T,T,"2",T,T,T,T,T,T,T,T,T,T,F,F,T,23.0101646,120.2226962,"67000340001",開元里
"11956",臺南市,臺南市北區,"1","26000",F,"0",T,1209.3,電梯大樓,整層住家,F,"22","24","2",21.5,T,T,T,T,T,T,T,T,T,T,T,T,T,F,不限,T,F,T,"2",T,T,T,T,T,T,T,T,T,T,F,F,T,23.0068436,120.2200106,"67000340007",振興里
"11961",臺南市,臺南市北區,"1","23000",F,"0",F,976.231,電梯大樓,整層住家,F,"13","24","11",23.56,T,T,T,T,T,T,T,T,T,T,T,T,T,F,不限,T,F,T,"2",T,T,T,T,T,T,T,T,T,T,F,F,T,23.0101646,120.2226962,"67000340001",開元里
"11975",臺南市,臺南市東區,"1","8500",F,"0",F,772.727,電梯大樓,獨立套房,F,"9","9","0",11,T,T,T,T,T,T,T,T,T,T,T,T,T,T,限女,F,F,T,"0",T,T,T,T,T,T,T,T,T,T,T,T,F,22.9883366,120.2299045,"67000320002",裕農里
"11995",臺南市,臺南市東區,"1","5500",F,"0",F,916.667,透天,獨立套房,F,"2","4","2",6,T,T,T,F,F,T,T,T,T,T,T,T,T,F,不限,T,F,F,"2",T,T,T,T,T,T,F,T,T,T,T,T,F,22.979409,120.222403,"67000320039",德光里
"11998",臺南市,臺南市安平區,"1","16000",T,"1440",F,517.078,電梯大樓,整層住家,F,"4","9","5",33.728,T,T,T,T,T,T,T,F,T,F,F,F,T,F,不限,T,F,T,"2",F,F,F,F,F,T,F,F,F,T,F,F,T,22.9938542,120.1724857,"67000360007",華平里
"12015",臺南市,臺南市東區,"1","32000",T,"2016",T,1319.47,電梯大樓,整層住家,F,"12","14","2",25.78,T,T,T,T,T,F,T,F,T,F,T,F,T,F,不限,T,F,F,"2",T,T,T,F,T,T,T,T,T,T,F,F,T,22.9834804,120.2232464,"67000320024",龍山里
"12036",臺南市,臺南市永康區,"1","5200",F,"0",F,1040,透天,獨立套房,F,"4","5","1",5,T,F,T,F,F,T,T,F,T,T,F,T,T,F,不限,F,F,F,"1",T,T,T,T,T,T,F,F,T,T,T,T,F,23.0217454,120.2325197,"67000310033",東橋里
"12085",臺南市,臺南市東區,"1","5000",F,"0",F,714.286,公寓,獨立套房,F,"6","6","0",7,T,T,T,F,F,T,T,F,T,T,T,T,T,F,不限,F,T,F,"0",T,T,T,T,T,T,T,T,T,T,T,T,F,22.987272,120.223195,"67000320018",衛國里
"12154",臺南市,臺南市東區,"2","8000",F,"0",F,800,電梯大樓,獨立套房,F,"3","6","3",10,T,T,T,T,T,T,T,F,T,T,F,T,T,F,不限,F,F,T,"2",T,F,F,T,T,T,T,T,T,T,F,F,T,22.987233,120.234135,"67000320034",東聖里
"12169",臺南市,臺南市東區,"2","17000",T,"2800",F,495,電梯大樓,整層住家,F,"1","15","14",40,T,T,T,T,T,T,T,T,T,T,T,T,T,F,不限,T,F,T,"0",T,T,T,F,T,T,F,T,F,T,F,F,T,22.9920212,120.2210049,"67000320010",中西里
"12175",臺南市,臺南市北區,"1","4000",F,"0",F,666.667,透天,獨立套房,F,"3","5","2",6,T,T,T,T,F,T,T,F,T,T,F,F,T,F,不限,F,F,T,"0",T,T,T,T,T,T,F,T,T,T,T,T,F,23.004969,120.2174214,"67000340032",中樓里
"12189",臺南市,臺南市安平區,"1","6000",F,"0",F,1000,透天,分租套房,F,"2","3","1",6,F,F,T,F,T,T,T,T,T,T,T,F,T,T,限女,T,F,T,"0",T,T,T,T,T,T,T,T,T,T,T,T,F,22.9920025,120.1730941,"67000360007",華平里
"12209",臺南市,臺南市東區,"1","16800",F,"0",T,466.667,電梯大樓,整層住家,F,"2","16","14",36,T,T,T,T,T,T,T,T,T,T,T,T,T,F,不限,T,T,T,"0",T,T,T,T,T,T,T,T,T,T,F,F,T,22.9710523,120.236603,"67000320006",仁和里
"12312",臺南市,臺南市東區,"1","7000",F,"0",F,700,透天,獨立套房,F,"1","4","3",10,T,F,T,F,F,T,T,T,T,T,T,T,T,F,不限,F,F,T,"0",T,T,T,T,T,T,F,F,T,T,T,T,F,22.9705925,120.2297551,"67000320035",崇成里
"12341",臺南市,臺南市東區,"1","4000",F,"0",F,1000,透天,分租套房,F,"2","3","1",4,T,T,T,F,T,T,T,T,T,T,T,F,T,F,不限,F,F,T,"0",T,T,T,T,T,T,F,T,T,T,T,F,F,22.9873567,120.2285841,"67000320002",裕農里
"12404",臺南市,臺南市北區,"1","8800",F,"0",F,1554.77,電梯大樓,獨立套房,F,"13","14","1",5.66,T,T,T,T,T,T,T,T,T,T,T,T,T,F,不限,F,F,F,"2",T,T,T,T,T,T,F,T,T,T,F,F,F,23.002743,120.201854,"67000340054",立人里
"12432",臺南市,臺南市北區,"1","5200",F,"0",T,800,電梯大樓,獨立套房,F,"2","5","3",6.5,T,F,T,F,T,T,T,T,T,T,F,T,T,F,不限,F,F,F,"0",T,T,T,F,T,T,F,T,T,T,T,F,F,23.0046569,120.2173759,"67000340032",中樓里
"12438",臺南市,臺南市安南區,"2","27000",F,"0",T,450,透天,整層住家,F,"0","4","4",60,T,T,T,T,T,T,F,F,T,T,T,F,F,F,不限,T,F,T,"0",T,T,T,F,T,T,T,T,T,T,F,F,F,23.0242288,120.1924687,"67000350040",溪墘里
"12487",臺南市,臺南市永康區,"1","5800",F,"0",F,682.353,透天,獨立套房,F,"4","4","0",8.5,T,F,T,F,T,T,T,F,T,F,T,F,F,F,不限,F,F,T,"0",T,T,T,T,T,T,F,T,T,T,T,F,F,23.0450603,120.2417594,"67000310043",塩興里
"12489",臺南市,臺南市北區,"1","18000",F,"0",F,1243.95,電梯大樓,整層住家,F,"14","24","10",14.47,T,T,T,T,T,T,F,F,T,T,F,T,T,F,不限,T,F,T,"2",T,T,T,T,F,T,T,T,T,T,F,F,F,23.0070009,120.2201679,"67000340007",振興里
"12523",臺南市,臺南市北區,"1","17500",F,"0",F,1156.64,電梯大樓,整層住家,F,"8","24","16",15.13,T,T,T,T,T,T,T,F,T,T,F,T,T,F,不限,T,F,T,"2",T,T,T,T,F,T,T,T,T,T,F,F,F,23.0094361,120.2219677,"67000340001",開元里
"12538",臺南市,臺南市永康區,"1","4500",F,"0",F,750,透天,分租套房,F,"2","4","2",6,T,T,T,F,F,T,F,F,T,F,F,F,T,F,不限,F,F,T,"2",T,T,T,T,T,T,F,T,T,T,T,T,F,23.012235,120.2297292,"67000310031",六合里
"12548",臺南市,臺南市中西區,"1","13000",F,"0",F,1187.5,透天,獨立套房,F,"2","3","1",12,T,F,T,F,F,T,F,F,T,T,F,T,T,F,不限,F,F,T,"1",T,T,T,T,T,T,T,T,T,T,T,T,F,22.9994942,120.190905,"67000370048",西和里
"12608",臺南市,臺南市中西區,"2","15000",F,"0",F,454.545,透天,整層住家,F,"2","2","0",33,T,T,T,T,T,T,T,T,T,T,T,T,T,F,不限,T,F,T,"2",F,F,F,F,T,F,F,F,F,F,F,F,F,22.985503,120.2138809,"67000320005",泉南里
"12622",臺南市,臺南市北區,"1","5500",F,"0",F,916.667,電梯大樓,獨立套房,F,"6","6","0",6,T,T,T,F,F,T,T,F,T,T,F,T,T,T,限女,F,F,T,"0",T,T,T,T,T,T,T,T,T,T,T,T,F,23.0054782,120.2196864,"67000340008",仁愛里
"12655",臺南市,臺南市東區,"1","29000",F,"0",T,885.226,電梯大樓,整層住家,F,"14","15","1",32.76,T,T,T,T,T,T,T,F,F,F,F,T,T,F,不限,T,F,T,"2",F,F,F,F,T,T,F,F,F,F,F,F,T,22.9648382,120.218406,"67000320012",崇明里
"12669",臺南市,臺南市東區,"2","7500",F,"0",F,833.333,公寓,分租套房,F,"5","5","0",9,T,F,T,F,F,T,T,T,T,T,F,T,T,F,不限,T,T,T,"0",T,T,T,T,T,T,T,T,T,T,T,T,F,22.992621,120.231763,"67000320008",東光里
"12673",臺南市,臺南市永康區,"1","6700",F,"0",F,837.5,公寓,獨立套房,F,"1","2","1",8,T,F,T,F,F,T,T,F,T,T,T,T,T,F,不限,F,F,T,"0",T,T,T,T,T,T,T,T,T,T,T,T,F,23.0098741,120.235319,"67000310001",五王里
"12676",臺南市,臺南市東區,"1","6000",F,"0",F,750,透天,獨立套房,F,"3","3","0",8,T,F,T,F,F,T,T,T,T,T,T,T,T,F,不限,F,F,T,"0",T,T,T,T,T,T,T,T,T,T,T,T,F,22.987885,120.226166,"67000320009",新東里
"12682",臺南市,臺南市永康區,"1","5000",F,"0",F,833.333,公寓,獨立套房,F,"2","7","5",6,T,T,T,F,F,T,T,T,T,T,T,T,T,F,不限,F,F,T,"0",T,T,T,T,T,T,T,T,T,T,T,T,F,23.0124403,120.2273798,"67000310035",西橋里
"12717",臺南市,臺南市永康區,"1","12900",T,"900",F,836.364,電梯大樓,獨立套房,F,"10","15","5",16.5,T,T,T,T,T,T,T,T,T,T,T,T,T,F,不限,T,F,T,"2",T,T,T,T,T,T,T,T,T,T,F,F,F,22.998253,120.235766,"67000320007",後甲里
"12740",臺南市,臺南市安平區,"1","24000",F,"0",T,793.126,電梯大樓,整層住家,F,"12","14","2",30.26,T,T,T,T,T,T,T,F,T,T,T,T,T,F,不限,T,T,T,"2",T,T,T,F,T,T,F,T,T,T,F,F,T,22.9890194,120.1685944,"67000360011",育平里
"12743",臺南市,臺南市北區,"1","25000",T,"1459",F,826.844,電梯大樓,整層住家,F,"21","24","3",32,T,T,T,T,T,T,T,T,T,T,T,T,T,F,不限,T,F,T,"0",T,T,T,T,T,T,T,T,T,T,F,F,T,23.0086606,120.2218276,"67000340001",開元里
"12747",臺南市,臺南市中西區,"1","30000",T,"3500",T,679.886,電梯大樓,整層住家,F,"8","13","5",49.273,T,T,T,T,T,T,T,T,T,F,T,F,T,F,不限,T,F,T,"2",T,T,T,T,T,T,T,T,T,T,F,F,F,23.0012613,120.1967382,"67000340054",立人里
"12798",臺南市,臺南市永康區,"1","5000",F,"0",T,500,電梯大樓,獨立套房,F,"6","8","2",10,T,T,T,F,F,T,F,F,T,T,T,T,T,F,不限,T,F,T,"0",T,T,T,T,T,T,F,T,T,T,T,T,F,23.0387984,120.2369054,"67000310010",塩行里
"12917",臺南市,臺南市東區,"1","23000",F,"0",T,671.337,透天,整層住家,F,"2","9","7",34.26,T,T,T,T,T,T,T,T,T,T,F,T,T,F,不限,T,T,T,"2",T,T,T,F,T,T,T,T,T,F,F,F,T,22.9953985,120.2181085,"67000320037",成大里
"12933",臺南市,臺南市永康區,"1","4000",F,"0",F,666.667,電梯大樓,雅房,F,"6","6","0",6,T,F,T,F,F,T,T,T,T,T,F,F,T,T,限女,F,F,T,"2",T,T,T,T,T,T,F,T,T,T,T,T,F,23.0303717,120.2534717,"67000310038",正強里
"12963",臺南市,臺南市北區,"1","3000",F,"0",F,750,透天,獨立套房,F,"1","2","1",4,T,F,T,F,T,T,T,T,T,T,T,T,T,F,不限,F,F,T,"2",T,T,T,F,T,T,F,T,T,T,T,F,F,23.0049224,120.2204994,"67000340007",振興里
"13068",臺南市,臺南市南區,"2","16000",F,"0",T,484.848,公寓,整層住家,F,"3","5","2",33,T,T,T,T,T,T,T,T,T,T,F,F,T,F,不限,T,F,T,"2",T,T,T,F,T,F,T,T,T,T,F,F,T,22.978789,120.197334,"67000330008",田寮里
"13117",臺南市,臺南市北區,"1","19000",F,"0",T,1117.65,電梯大樓,整層住家,F,"11","24","13",17,T,T,T,T,T,T,T,F,T,T,F,T,F,F,不限,F,F,T,"0",T,T,T,T,T,T,T,T,T,T,F,F,T,23.0086405,120.2218075,"67000340001",開元里
"13174",臺南市,臺南市中西區,"1","7500",T,"600",F,675,電梯大樓,獨立套房,F,"3","9","6",12,T,T,T,T,T,T,T,T,T,T,T,T,T,F,不限,F,F,T,"0",T,T,T,T,T,T,T,T,T,T,F,F,F,22.9938674,120.1917892,"67000370046",府前里
"13190",臺南市,臺南市永康區,"1","5000",F,"0",T,714.286,公寓,獨立套房,F,"3","5","2",7,T,T,T,F,T,T,T,T,T,T,T,T,T,F,不限,T,F,T,"1",T,T,T,T,T,T,T,T,T,T,T,F,T,23.0173076,120.2363696,"67000310033",東橋里
"13199",臺南市,臺南市東區,"1","29000",T,"1190",T,670.889,電梯大樓,整層住家,F,"7","7","0",45,T,T,T,T,T,T,T,T,T,T,T,T,T,F,不限,T,F,T,"1",T,T,T,F,T,T,T,T,T,T,F,F,T,22.9853696,120.2124147,"67000320038",大同里
"13241",臺南市,臺南市北區,"1","8500",F,"0",F,1062.5,電梯大樓,獨立套房,F,"6","6","0",8,T,F,T,F,F,T,T,F,T,T,T,F,T,F,不限,F,F,F,"1",T,T,F,T,T,T,T,T,T,T,T,T,F,23.0102389,120.1840426,"67000340026",大港里
"13245",臺南市,臺南市東區,"1","4000",F,"0",F,1000,電梯大樓,分租套房,F,"7","7","0",5,T,F,T,F,F,T,T,T,T,T,T,T,F,F,不限,F,T,T,"0",T,T,T,T,T,T,F,T,T,T,T,T,F,22.99306,120.228976,"67000320031",東明里
"13254",臺南市,臺南市北區,"1","7000",F,"0",F,466.667,透天,獨立套房,F,"4","4","0",15,T,F,T,F,F,T,T,T,T,T,T,T,T,F,不限,F,F,T,"0",T,T,T,T,T,T,T,T,T,T,T,T,F,23.01835,120.209024,"67000340024",成功里
"13258",臺南市,臺南市北區,"1","4500",F,"0",F,375,透天,獨立套房,F,"3","3","0",12,T,T,T,T,T,T,T,F,F,F,F,T,T,T,限女,T,F,T,"0",T,T,T,T,T,T,F,T,T,T,F,F,F,23.0177268,120.2165584,"67000340046",北門里
"13306",臺南市,臺南市中西區,"1","8500",T,"950",F,1127.2,公寓,獨立套房,F,"6","6","0",7.9,T,T,T,T,T,T,T,T,T,T,T,T,T,F,不限,T,F,T,"2",T,T,T,T,T,T,T,T,T,F,F,F,F,22.990202,120.210742,"67000370039",城隍里
"13313",臺南市,臺南市安南區,"1","18500",F,"0",F,356.393,電梯大樓,整層住家,F,"0","4","4",51.909,T,T,T,T,T,T,T,F,T,T,T,T,T,F,不限,F,F,T,"1",F,F,F,F,F,T,F,F,F,F,F,F,F,23.0479893,120.211608,"67000350010",新順里
"13328",臺南市,臺南市永康區,"1","28000",F,"0",F,354.43,電梯大樓,整層住家,F,"3","13","10",79,T,T,T,T,T,T,T,F,T,T,T,T,T,F,不限,T,F,T,"0",T,T,T,F,T,T,T,T,T,T,F,F,T,23.0113482,120.2471798,"67000310020",復國里
"13358",臺南市,臺南市安平區,"1","22000",F,"0",T,733.333,電梯大樓,整層住家,F,"19","20","1",30,T,T,T,T,T,T,T,F,T,F,F,F,T,F,不限,T,T,T,"2",F,F,F,F,T,T,F,F,F,F,F,F,F,22.9845548,120.1693925,"67000360010",國平里
"13360",臺南市,臺南市中西區,"1","21000",F,"0",T,700,電梯大樓,整層住家,F,"8","10","2",30,T,T,T,T,T,T,T,F,T,T,T,T,T,F,不限,T,T,T,"2",T,T,T,T,F,T,T,T,T,T,F,F,T,22.9998128,120.1894556,"67000370048",西和里
"13369",臺南市,臺南市安平區,"1","12000",F,"0",F,428.571,透天,獨立套房,F,"2","3","1",28,T,T,T,T,F,T,T,T,T,T,T,T,T,F,不限,F,F,T,"0",T,T,T,T,T,T,T,T,T,T,F,F,T,22.9921404,120.172254,"67000360007",華平里
"13381",臺南市,臺南市永康區,"1","19800",F,"0",T,609.231,電梯大樓,整層住家,F,"6","7","1",32.5,T,T,T,T,T,T,T,T,T,T,T,T,T,F,不限,T,F,T,"2",T,T,T,F,T,T,T,T,T,T,F,F,T,23.0164291,120.2285818,"67000310034",安康里
"13386",臺南市,臺南市永康區,"1","3800",F,"0",T,760,透天,獨立套房,F,"1","3","2",5,T,F,T,F,T,T,T,T,T,T,T,T,T,F,不限,F,F,T,"0",T,T,T,F,T,T,F,T,T,T,T,F,F,22.9974414,120.2539253,"67000310016",崑山里
"13428",臺南市,臺南市永康區,"1","48000",F,"0",T,1371.43,電梯大樓,整層住家,F,"14","14","0",35,T,T,T,T,T,T,T,F,T,T,F,T,T,F,不限,T,F,T,"0",T,T,T,T,T,T,T,T,T,T,T,F,F,23.0251761,120.2348568,"67000310033",東橋里
"13436",臺南市,臺南市永康區,"1","18000",F,"0",T,515.759,電梯大樓,整層住家,F,"6","20","14",34.9,T,T,T,T,T,T,T,F,T,T,T,T,T,F,不限,T,F,T,"1",T,T,T,T,T,T,T,T,T,T,F,F,T,23.0218582,120.2347658,"67000310033",東橋里
"13507",臺南市,臺南市中西區,"1","5500",F,"0",F,687.5,透天,獨立套房,F,"4","4","0",8,T,F,F,F,F,T,T,T,T,T,F,F,T,T,限女,F,F,T,"0",T,T,T,T,T,T,F,T,T,T,T,T,T,22.9901744,120.1897963,"67000370031",大涼里
"13517",臺南市,臺南市東區,"1","5800",F,"0",T,725,公寓,獨立套房,F,"3","4","1",8,T,F,T,F,F,T,T,T,T,T,T,T,T,F,不限,F,F,T,"0",T,T,T,T,T,T,F,T,T,T,T,T,F,22.9921221,120.2213932,"67000320023",大學里
"13546",臺南市,臺南市安南區,"1","6500",F,"0",F,812.5,透天,獨立套房,F,"3","4","1",8,T,F,T,F,T,T,T,F,T,F,T,T,T,F,不限,F,F,F,"0",T,T,T,T,T,T,T,T,F,T,T,F,F,23.028008,120.191537,"67000350040",溪墘里
"13560",臺南市,臺南市中西區,"1","5000",F,"0",F,714.286,透天,獨立套房,F,"2","4","2",7,T,F,F,T,F,T,F,T,T,T,F,F,T,F,不限,T,F,T,"0",T,T,T,T,T,T,T,T,T,T,T,T,T,22.985188,120.202286,"67000370041",南門里
"13578",臺南市,臺南市北區,"1","18000",F,"0",T,600,電梯大樓,整層住家,F,"6","14","8",30,T,T,T,T,T,T,T,T,T,T,T,T,T,F,不限,T,F,T,"0",T,T,T,T,F,T,T,T,T,T,T,T,T,23.0104521,120.220541,"67000340001",開元里
"13587",臺南市,臺南市永康區,"1","3500",F,"0",F,700,透天,獨立套房,F,"5","5","0",5,T,T,T,F,T,T,T,T,T,T,T,T,T,F,不限,F,F,T,"2",T,T,T,T,T,T,F,F,T,T,T,F,F,22.9991261,120.238239,"67000310039",中華里
"13649",臺南市,臺南市永康區,"1","22000",F,"0",T,415.094,電梯大樓,整層住家,F,"14","14","0",53,T,T,T,T,T,T,T,T,T,T,F,T,T,F,不限,T,F,T,"2",T,T,T,T,T,T,T,T,T,T,F,F,T,23.0014295,120.2351061,"67000310024",成功里
"13665",臺南市,臺南市東區,"1","12000",T,"993",T,896.069,電梯大樓,獨立套房,F,"12","14","2",14.5,T,T,T,T,T,T,T,T,T,T,T,T,T,F,不限,T,T,T,"2",T,T,T,T,T,T,T,T,T,T,F,F,F,22.997989,120.2344894,"67000320027",莊敬里
"13713",臺南市,臺南市東區,"1","4500",F,"0",F,900,電梯大樓,獨立套房,F,"5","9","4",5,T,T,T,T,T,F,F,F,F,F,F,T,T,F,不限,F,F,T,"2",T,F,F,F,T,T,F,F,T,T,F,F,F,22.9896144,120.2132056,"67000320036",東門里
"13714",臺南市,臺南市安南區,"1","10000",F,"0",F,416.667,公寓,整層住家,F,"4","4","0",24,T,T,T,T,T,T,T,F,T,T,T,F,T,F,不限,T,F,T,"2",T,T,T,F,T,T,T,F,T,T,F,F,F,23.0431622,120.1967719,"67000350043",鳳凰里
"13720",臺南市,臺南市東區,"1","3000",F,"0",F,750,公寓,雅房,F,"3","4","1",4,T,F,T,F,T,T,T,T,T,T,T,T,T,T,限女,F,F,T,"0",T,T,T,F,T,T,F,T,T,T,T,F,F,22.9884964,120.2209297,"67000320011",東安里
"13737",臺南市,臺南市東區,"1","10000",F,"0",F,727.273,電梯大樓,獨立套房,F,"13","14","1",13.75,T,T,T,F,F,T,T,T,T,T,T,T,T,F,不限,T,F,T,"1",T,T,T,T,T,T,F,T,T,T,T,T,F,22.9849906,120.2332155,"67000320013",自強里
"13747",臺南市,臺南市東區,"2","6500",F,"0",F,928.571,透天,獨立套房,F,"3","3","0",7,T,T,T,F,T,T,T,T,T,T,T,T,T,F,不限,F,F,T,"2",T,T,T,F,T,T,F,F,T,T,T,F,F,22.9865934,120.2276756,"67000320002",裕農里
"13783",臺南市,臺南市東區,"1","7500",F,"0",F,1071.43,透天,獨立套房,F,"2","3","1",7,T,T,T,F,T,T,T,T,T,T,T,T,T,F,不限,F,F,T,"2",T,T,T,F,T,T,F,F,T,T,T,F,F,22.9865934,120.2276756,"67000320002",裕農里
"13796",臺南市,臺南市永康區,"1","5000",F,"0",F,769.231,透天,獨立套房,F,"3","5","2",6.5,T,F,T,F,F,T,F,F,T,T,F,F,T,F,不限,F,F,T,"1",T,T,T,T,T,T,F,F,T,F,T,T,F,23.0300598,120.2570203,"67000310004",埔園里
"13868",臺南市,臺南市中西區,"1","10000",F,"0",F,1250,電梯大樓,獨立套房,F,"7","12","5",8,T,F,T,F,F,T,T,T,T,F,T,F,T,F,不限,F,F,T,"0",T,T,T,T,T,T,T,T,T,T,T,T,F,22.9945903,120.1934518,"67000370045",淺草里
"13947",臺南市,臺南市北區,"1","6500",F,"0",F,1625,電梯大樓,獨立套房,F,"6","14","8",4,T,F,T,F,F,T,T,T,T,T,T,T,T,F,不限,F,F,T,"1",F,T,T,T,T,T,F,T,T,T,T,T,F,23.0062641,120.22164,"67000340007",振興里
"13952",臺南市,臺南市永康區,"1","3800",F,"0",F,760,透天,獨立套房,T,"3","2","-1",5,T,T,T,F,T,T,F,F,T,T,F,T,T,T,限女,F,F,T,"0",T,T,T,T,T,T,F,T,T,T,T,F,F,23.0273056,120.2504519,"67000310038",正強里
"14062",臺南市,臺南市東區,"1","3700",F,"0",F,672.727,透天,雅房,F,"4","5","1",5.5,F,F,T,F,T,T,F,T,T,F,T,F,T,T,限女,F,F,T,"0",T,T,T,T,T,T,T,T,T,T,T,F,F,22.982432,120.212555,"67000320038",大同里
"14161",臺南市,臺南市永康區,"1","5000",F,"0",F,1000,透天,獨立套房,F,"4","5","1",5,T,T,T,T,T,T,F,F,F,F,F,F,T,F,不限,F,F,T,"1",T,T,T,T,T,T,F,F,T,F,F,F,F,22.9976461,120.2541558,"67000310016",崑山里
"14311",臺南市,臺南市永康區,"1","5500",F,"0",F,916.667,透天,分租套房,F,"4","4","0",6,T,F,T,F,F,T,T,T,T,T,F,T,T,F,不限,F,F,T,"0",T,T,T,T,T,T,F,T,T,T,T,T,F,23.014338,120.229247,"67000310034",安康里
"14384",臺南市,臺南市北區,"1","9500",F,"0",F,730.769,電梯大樓,獨立套房,F,"6","12","6",13,T,F,T,F,F,T,T,T,T,T,T,T,T,F,不限,T,F,F,"1",T,T,T,T,T,T,T,T,T,T,T,T,F,23.004668,120.209376,"67000340050",長興里
"14418",臺南市,臺南市北區,"1","18500",F,"0",T,925,電梯大樓,整層住家,F,"17","24","7",20,T,T,T,T,T,T,T,T,T,T,T,T,T,F,不限,T,F,T,"2",T,T,T,T,T,T,T,T,T,T,F,F,T,23.0086606,120.2218276,"67000340001",開元里
"14425",臺南市,臺南市永康區,"1","25000",F,"0",T,501.203,電梯大樓,整層住家,F,"14","16","2",49.88,T,T,T,T,T,T,T,T,T,T,F,T,T,F,不限,T,F,T,"2",T,T,T,T,T,T,T,T,T,T,F,F,T,23.0119343,120.2473013,"67000310020",復國里
"14458",臺南市,臺南市東區,"1","9999",F,"0",F,975.512,電梯大樓,獨立套房,F,"4","14","10",10.3,T,T,T,F,F,T,T,T,T,T,T,T,T,F,不限,T,F,T,"2",T,T,F,T,T,T,T,T,T,T,T,T,F,22.9854838,120.2334124,"67000320034",東聖里
"14484",臺南市,臺南市永康區,"1","4800",F,"0",F,600,透天,獨立套房,F,"4","5","1",8,T,T,T,F,F,T,T,T,T,T,F,T,T,F,不限,F,F,T,"0",T,T,T,T,T,T,F,T,T,T,T,T,F,22.9996901,120.233595,"67000310026",勝利里
"14530",臺南市,臺南市東區,"1","3700",F,"0",F,740,電梯大樓,分租套房,F,"6","7","1",5,T,F,T,F,F,T,T,T,T,T,T,T,T,F,不限,T,T,T,"0",T,T,T,T,T,T,F,T,T,T,T,T,F,22.998385,120.227908,"67000320022",小東里
"14589",臺南市,臺南市永康區,"1","5000",F,"0",T,714.286,透天,獨立套房,F,"1","2","1",7,T,F,T,F,F,T,T,T,T,T,T,T,T,F,不限,F,F,T,"0",T,T,T,T,T,T,F,T,T,T,T,F,F,23.0195421,120.223719,"67000310011",甲頂里
"14660",臺南市,臺南市南區,"1","7000",F,"0",F,466.667,透天,整層住家,F,"2","3","1",15,T,T,T,T,F,T,T,T,T,T,F,T,T,F,不限,T,T,T,"0",T,T,T,T,T,T,F,T,T,T,F,T,F,22.9846061,120.196607,"67000330006",新昌里
"14665",臺南市,臺南市永康區,"1","6600",F,"0",F,825,透天,獨立套房,F,"5","5","0",8,T,F,T,F,F,T,T,F,T,T,T,T,T,F,不限,F,F,T,"0",T,T,T,T,T,T,F,F,T,T,T,T,F,23.0379263,120.2573972,"67000310004",埔園里
"14666",臺南市,臺南市北區,"1","5900",F,"0",T,842.857,公寓,獨立套房,F,"1","4","3",7,T,F,T,F,F,T,T,T,T,T,T,T,T,F,不限,F,F,T,"0",T,T,T,T,T,T,F,F,T,T,T,T,F,23.0068309,120.2262319,"67000340019",重興里
"14745",臺南市,臺南市東區,"1","16000",F,"0",T,1849.28,電梯大樓,獨立套房,F,"11","14","3",8.652,T,T,T,T,T,T,F,T,T,T,F,F,T,F,不限,T,F,T,"2",F,F,F,F,F,T,F,T,F,F,F,F,F,22.9857194,120.233648,"67000320034",東聖里
"14755",臺南市,臺南市東區,"1","15000",F,"0",F,1071.43,透天,獨立套房,F,"3","5","2",14,T,F,T,F,F,T,T,T,T,F,T,T,T,F,不限,T,F,T,"0",T,T,T,T,T,T,T,T,T,T,T,T,F,22.994377,120.2217689,"67000320023",大學里
"14762",臺南市,臺南市東區,"1","5400",F,"0",F,900,電梯大樓,獨立套房,F,"2","5","3",6,T,T,T,F,T,T,F,T,T,T,T,T,T,F,不限,T,F,T,"1",F,T,T,T,T,T,F,F,T,T,T,F,F,22.9903173,120.2226932,"67000320010",中西里
"14788",臺南市,臺南市南區,"1","5000",F,"0",F,714.286,透天,獨立套房,F,"3","4","1",7,T,F,T,F,F,T,T,T,T,T,T,T,T,F,不限,F,F,T,"2",T,T,T,T,T,T,F,T,T,T,T,T,F,22.985343,120.186694,"67000330027",文華里
"14830",臺南市,臺南市東區,"2","4800",F,"0",F,960,透天,分租套房,F,"1","4","3",5,T,F,T,F,F,F,T,T,T,T,T,F,T,F,不限,F,F,T,"2",T,T,T,T,T,T,F,T,T,T,T,T,F,22.988157,120.233113,"67000320020",富強里
"14852",臺南市,臺南市北區,"1","17000",F,"0",F,511.74,電梯大樓,整層住家,F,"20","25","5",33.22,T,T,T,T,T,T,T,T,T,T,T,T,T,F,不限,T,F,T,"2",F,F,F,F,T,T,F,F,F,F,F,F,T,23.0030975,120.2021332,"67000340020",和順里
"14883",臺南市,臺南市永康區,"1","23000",F,"0",T,306.667,透天,整層住家,F,"0","3","3",75,T,T,T,T,T,T,T,T,T,T,T,T,T,F,不限,T,F,T,"0",F,F,F,F,T,T,F,F,F,F,F,F,F,23.0107274,120.2459274,"67000310020",復國里
"14928",臺南市,臺南市南區,"1","6500",F,"0",F,590.909,電梯大樓,獨立套房,F,"5","6","1",11,T,T,T,T,T,T,T,T,T,T,T,T,T,F,不限,T,T,F,"1",T,T,T,T,T,T,T,T,T,T,F,F,F,22.9807368,120.1867074,"67000330028",金華里
"14984",臺南市,臺南市中西區,"1","4500",F,"0",F,818.182,公寓,獨立套房,F,"4","4","0",5.5,T,T,T,F,F,T,T,T,T,F,F,F,T,F,不限,F,F,T,"0",T,T,T,T,T,T,F,F,T,T,T,T,F,22.986357,120.202205,"67000370041",南門里
"15023",臺南市,臺南市安南區,"1","6500",F,"0",F,928.571,透天,獨立套房,F,"4","4","0",7,T,T,T,F,F,T,T,T,T,T,T,T,T,F,不限,F,F,T,"0",T,T,T,T,T,T,F,F,T,T,T,T,F,23.0533659,120.1786694,"67000350018",溪心里
"15063",臺南市,臺南市永康區,"1","6000",F,"0",F,750,透天,獨立套房,F,"1","18","17",8,T,T,T,T,T,T,T,T,T,T,T,T,T,F,不限,F,T,F,"2",T,T,T,T,T,T,F,T,T,T,T,F,F,23.0206007,120.2610417,"67000310003",永康里
"15125",臺南市,臺南市東區,"1","12000",T,"1125",F,596.591,電梯大樓,整層住家,F,"3","14","11",22,T,T,T,T,T,T,T,T,T,T,T,T,T,F,不限,T,T,T,"2",F,F,F,F,T,F,F,F,F,F,F,F,F,22.9774621,120.2371251,"67000320025",虎尾里
"15243",臺南市,臺南市中西區,"2","6000",F,"0",F,666.667,透天,獨立套房,F,"5","5","0",9,T,T,T,F,F,T,T,T,T,T,T,T,T,T,限女,F,F,T,"2",T,T,T,T,T,T,T,F,T,T,T,T,F,22.9886426,120.1971388,"67000370047",南廠里
"15245",臺南市,臺南市永康區,"2","4500",F,"0",F,900,透天,獨立套房,F,"2","2","0",5,T,T,T,T,T,T,T,T,T,T,T,T,T,F,不限,F,F,F,"2",T,T,T,T,F,T,F,F,T,T,T,F,F,23.0185035,120.2243114,"67000310035",西橋里
"15247",臺南市,臺南市北區,"2","7000",F,"0",F,1076.92,透天,獨立套房,F,"3","3","0",6.5,T,F,T,F,F,T,T,T,T,T,T,T,T,F,不限,F,F,T,"2",T,T,T,T,T,T,T,F,T,T,T,T,T,23.0151681,120.1937202,"67000340025",文元里
"15346",臺南市,臺南市南區,"1","12000",F,"0",F,500,公寓,整層住家,F,"4","4","0",24,T,T,T,T,T,T,T,T,T,T,F,F,T,F,不限,T,T,T,"1",F,F,F,F,T,F,F,F,F,F,F,F,F,22.978087,120.187759,"67000330028",金華里
"15359",臺南市,臺南市東區,"1","32000",T,"1965",T,601.257,電梯大樓,整層住家,F,"3","15","12",56.49,T,T,T,T,T,T,T,T,T,T,T,T,T,F,不限,T,F,T,"2",T,T,T,F,T,T,T,T,T,T,F,F,T,22.9622456,120.2184151,"67000320033",東智里
"15363",臺南市,臺南市中西區,"2","7000",F,"0",F,875,電梯大樓,獨立套房,F,"9","12","3",8,T,F,T,F,F,T,T,T,T,T,T,T,T,F,不限,F,F,T,"2",T,T,T,T,T,T,F,F,T,T,T,T,F,22.990315,120.192714,"67000370047",南廠里
"15378",臺南市,臺南市中西區,"2","7000",F,"0",F,875,電梯大樓,獨立套房,F,"9","12","3",8,T,F,T,F,F,T,T,T,T,T,T,T,T,F,不限,F,F,T,"2",T,T,T,T,T,T,F,F,T,T,T,T,F,22.990315,120.192714,"67000370047",南廠里
"15392",臺南市,臺南市永康區,"1","16000",F,"0",T,688.765,電梯大樓,整層住家,F,"7","9","2",23.23,T,T,T,F,T,T,T,F,T,T,F,T,T,F,不限,T,F,T,"0",T,T,T,T,T,T,T,T,T,T,T,T,F,23.0008959,120.2318323,"67000310026",勝利里
"15433",臺南市,臺南市東區,"1","4500",F,"0",F,900,透天,雅房,F,"2","2","0",5,T,T,T,F,F,T,T,T,T,T,T,T,T,T,限女,F,F,T,"0",T,T,T,T,T,T,F,T,T,T,T,T,F,22.9757052,120.2152548,"67000320028",大福里
"15460",臺南市,臺南市安南區,"1","23000",F,"0",F,328.571,透天,整層住家,F,"0","3","3",70,T,T,T,T,T,F,F,F,T,F,F,F,T,F,不限,T,F,T,"2",T,T,T,F,T,F,T,F,T,T,F,F,F,23.0467223,120.1784816,"67000350047",淵中里
"15489",臺南市,臺南市北區,"1","21000",F,"0",F,1403.74,電梯大樓,整層住家,F,"23","24","1",14.96,T,T,T,T,T,T,T,F,T,T,F,T,T,F,不限,T,F,T,"2",T,T,T,T,T,T,T,T,T,T,F,F,F,23.0086606,120.2218276,"67000340001",開元里
"15503",臺南市,臺南市東區,"2","15000",F,"0",T,375,電梯大樓,整層住家,F,"2","7","5",40,T,T,T,T,T,T,T,F,T,T,T,T,T,F,不限,T,F,T,"2",T,T,T,F,T,T,F,T,T,T,F,F,T,22.961223,120.2273001,"67000320033",東智里
"15545",臺南市,臺南市永康區,"1","23000",F,"0",T,1181.3,電梯大樓,整層住家,F,"12","15","3",19.47,T,T,T,T,T,T,T,T,T,T,T,T,T,F,不限,T,F,T,"2",T,T,T,T,T,T,T,T,F,T,F,F,F,23.0236347,120.2333154,"67000310033",東橋里
"15554",臺南市,臺南市北區,"1","22000",F,"0",T,1470.59,電梯大樓,整層住家,F,"22","24","2",14.96,T,T,T,T,T,T,T,T,T,T,T,T,T,F,不限,T,F,T,"2",T,T,T,T,T,T,T,T,T,T,F,F,T,23.0068431,120.2200101,"67000340007",振興里
"15584",臺南市,臺南市東區,"1","18800",F,"0",T,682.643,電梯大樓,整層住家,F,"5","9","4",27.54,T,T,T,T,T,T,T,T,T,T,T,T,T,F,不限,T,T,T,"2",T,T,T,F,T,T,T,F,T,F,F,F,T,22.9726153,120.225707,"67000320032",崇德里
"15591",臺南市,臺南市永康區,"2","5000",F,"0",T,833.333,透天,獨立套房,F,"3","5","2",6,F,F,T,F,F,T,T,T,T,T,F,T,T,F,不限,F,F,T,"0",T,T,T,T,T,T,F,T,T,T,T,T,F,23.000179,120.236262,"67000310039",中華里
"15593",臺南市,臺南市永康區,"1","25000",T,"3258",T,809.685,電梯大樓,整層住家,F,"12","23","11",34.9,T,T,T,T,T,T,T,T,T,T,T,T,T,F,不限,T,F,T,"2",T,T,T,F,T,T,T,F,T,F,F,F,T,23.021042,120.2345546,"67000310033",東橋里
"15598",臺南市,臺南市永康區,"2","4600",F,"0",F,575,透天,獨立套房,F,"1","2","1",8,T,T,T,F,T,T,T,T,T,T,T,T,T,F,不限,F,T,T,"1",T,T,T,T,T,T,T,T,T,T,T,T,F,23.0402071,120.22704,"67000310029",塩洲里
"15621",臺南市,臺南市永康區,"1","20000",F,"0",T,800,電梯大樓,整層住家,F,"6","16","10",25,T,T,T,T,T,T,T,F,T,T,T,T,F,F,不限,T,F,T,"1",T,T,T,T,T,T,T,T,T,T,F,F,T,23.0200582,120.2365044,"67000310033",東橋里
"15659",臺南市,臺南市北區,"2","20000",F,"0",T,727.273,公寓,整層住家,F,"22","24","2",27.5,T,T,T,F,F,T,F,T,T,F,T,T,T,F,不限,T,F,T,"0",T,T,T,T,T,T,T,T,T,T,T,T,F,23.0046429,120.2139823,"67000340049",大興里
"15671",臺南市,臺南市北區,"1","24800",F,"0",T,1021,電梯大樓,整層住家,F,"5","14","9",24.29,T,T,T,T,T,F,F,F,T,F,T,F,T,F,不限,T,F,T,"2",T,T,T,T,T,T,T,T,T,T,T,T,F,23.020495,120.206967,"67000340024",成功里
"15692",臺南市,臺南市永康區,"1","14800",F,"0",T,822.222,電梯大樓,獨立套房,F,"9","11","2",18,T,T,T,F,F,T,T,F,T,T,T,F,T,F,不限,T,F,T,"1",T,T,T,F,T,T,T,T,T,T,T,T,F,23.0412329,120.2390099,"67000310010",塩行里
"15696",臺南市,臺南市永康區,"1","8200",F,"0",F,911.111,電梯大樓,獨立套房,F,"4","11","7",9,T,T,T,F,F,T,T,F,T,T,T,F,T,F,不限,T,F,T,"1",T,T,T,T,T,T,T,T,T,T,T,T,F,23.0412329,120.2390099,"67000310010",塩行里
"15698",臺南市,臺南市永康區,"1","5500",F,"0",F,916.667,電梯大樓,獨立套房,F,"7","9","2",6,T,T,T,T,T,T,F,F,T,F,T,F,T,F,不限,F,F,T,"0",T,T,T,T,T,T,F,T,T,T,F,F,F,23.0387497,120.2410851,"67000310010",塩行里
"15758",臺南市,臺南市東區,"1","5500",F,"0",F,687.5,透天,獨立套房,F,"1","1","0",8,T,F,T,T,T,T,T,T,T,T,T,T,T,F,不限,F,F,T,"0",T,T,T,T,T,T,F,T,T,T,F,T,F,22.9806872,120.2217799,"67000320039",德光里
"15816",臺南市,臺南市永康區,"1","5300",F,"0",T,883.333,電梯大樓,分租套房,F,"2","5","3",6,T,F,T,F,F,T,T,T,T,T,T,T,T,F,不限,F,F,F,"1",T,T,T,T,T,T,F,T,T,T,T,T,F,23.039629,120.239784,"67000310010",塩行里
"15866",臺南市,臺南市東區,"1","3700",F,"0",T,822.222,透天,獨立套房,F,"1","1","0",4.5,T,F,T,F,T,T,T,T,T,T,T,T,T,T,限女,F,F,T,"0",T,T,T,F,T,T,F,T,T,T,T,F,F,22.9812821,120.2235788,"67000320024",龍山里
"15898",臺南市,臺南市北區,"1","3000",F,"0",F,500,電梯大樓,雅房,F,"11","11","0",6,T,T,T,F,F,T,T,T,T,T,T,T,T,F,不限,F,F,F,"0",T,T,T,T,T,T,F,T,T,T,T,T,F,23.004491,120.213367,"67000340049",大興里
"15937",臺南市,臺南市中西區,"1","5000",T,"600",F,677.966,電梯大樓,獨立套房,F,"4","9","5",8.26,T,T,T,T,T,T,T,T,T,T,T,T,T,F,不限,F,F,T,"0",T,T,T,T,T,T,F,F,T,T,F,F,F,22.9954575,120.1933793,"67000370045",淺草里
"15961",臺南市,臺南市東區,"1","3950",F,"0",F,790,電梯大樓,獨立套房,F,"8","8","0",5,T,T,T,F,F,T,T,T,T,T,F,T,T,F,不限,F,F,T,"0",T,T,T,T,T,T,F,F,T,T,T,T,F,22.9935936,120.2287697,"67000320008",東光里
"15982",臺南市,臺南市永康區,"1","6400",F,"0",F,711.111,透天,獨立套房,F,"3","5","2",9,T,F,T,F,T,T,F,F,T,T,T,T,T,F,不限,T,F,T,"0",T,T,T,T,T,T,F,T,T,T,T,F,F,23.0414513,120.2429243,"67000310010",塩行里
"16104",臺南市,臺南市安平區,"1","29000",F,"0",T,617.021,電梯大樓,整層住家,F,"3","20","17",47,T,T,T,T,T,T,T,T,T,T,F,T,T,F,不限,T,F,T,"1",T,T,T,T,T,T,T,T,T,T,F,F,T,22.9840903,120.1602651,"67000360010",國平里
"16143",臺南市,臺南市東區,"1","13000",T,"1082",F,455.581,電梯大樓,整層住家,F,"3","12","9",30.91,T,T,T,T,T,T,T,F,T,T,F,T,T,F,不限,T,F,T,"0",T,T,F,F,T,T,F,T,T,F,F,F,T,22.9660377,120.2298786,"67000320041",崇文里
"16150",臺南市,臺南市永康區,"2","8500",F,"0",T,944.444,透天,分租套房,F,"2","2","0",9,T,F,T,F,F,T,T,T,T,T,F,T,T,F,不限,T,F,T,"0",T,T,T,T,T,T,T,T,T,T,T,T,F,23.0039684,120.2362416,"67000310024",成功里
"16214",臺南市,臺南市中西區,"2","18000",F,"0",T,862.896,電梯大樓,整層住家,F,"5","13","8",20.86,T,T,T,T,T,T,T,T,T,T,T,T,T,F,不限,T,F,T,"2",T,T,T,F,T,T,T,T,T,T,F,F,F,22.9947357,120.2086214,"67000370039",城隍里
"16253",臺南市,臺南市中西區,"1","7500",T,"700",F,1099.2,電梯大樓,獨立套房,F,"5","6","1",7.46,T,T,T,F,T,T,T,T,T,T,T,T,T,F,不限,F,F,T,"0",T,T,T,T,T,T,F,F,T,T,T,F,F,22.9933158,120.1907636,"67000370031",大涼里
"16335",臺南市,臺南市北區,"1","5600",F,"0",F,933.333,公寓,獨立套房,F,"3","5","2",6,T,T,T,T,T,T,T,T,T,T,F,T,T,F,不限,F,F,T,"0",T,T,T,T,T,T,T,T,T,T,F,F,F,23.003987,120.2223158,"67000340008",仁愛里
"16423",臺南市,臺南市永康區,"2","7800",F,"0",F,917.647,透天,獨立套房,F,"4","5","1",8.5,T,T,T,F,F,T,T,F,T,F,T,F,T,F,不限,F,F,F,"1",T,T,T,T,T,T,F,F,T,T,T,T,F,23.042768,120.23466,"67000310029",塩洲里
"16431",臺南市,臺南市永康區,"2","5000",F,"0",T,1000,透天,獨立套房,F,"1","4","3",5,T,T,T,F,F,T,T,F,T,T,T,F,T,F,不限,F,F,T,"1",T,T,T,T,T,T,T,T,T,T,T,T,F,23.0378801,120.2354431,"67000310010",塩行里
"16661",臺南市,臺南市東區,"1","5500",F,"0",F,550,公寓,獨立套房,F,"5","7","2",10,T,T,T,T,T,T,T,T,T,T,T,T,T,F,不限,F,F,F,"0",T,T,T,F,T,T,F,T,T,T,F,F,F,22.9869831,120.234116,"67000320034",東聖里
"16667",臺南市,臺南市東區,"1","11000",F,"0",F,738.255,電梯大樓,獨立套房,F,"6","14","8",14.9,T,T,T,T,F,T,T,T,T,T,T,T,T,F,不限,T,F,T,"2",T,T,T,T,T,T,T,T,T,T,F,T,F,22.9857194,120.233648,"67000320034",東聖里
"16681",臺南市,臺南市北區,"1","24800",F,"0",T,1021,電梯大樓,整層住家,F,"5","14","9",24.29,T,T,T,T,T,T,T,T,T,T,T,T,T,F,不限,T,F,T,"2",T,T,T,T,T,T,T,T,T,T,F,F,F,23.021005,120.2071136,"67000340024",成功里
"16704",臺南市,臺南市北區,"1","25000",F,"0",F,668.449,電梯大樓,整層住家,F,"14","14","0",37.4,T,T,T,T,T,T,T,T,T,T,T,T,T,F,不限,T,F,T,"2",T,T,T,T,T,T,T,T,T,T,F,F,F,23.0125156,120.2248131,"67000340038",元寶里
"16718",臺南市,臺南市北區,"1","6200",F,"0",F,885.714,透天,獨立套房,F,"3","3","0",7,T,F,T,F,F,T,T,T,T,T,T,T,T,F,不限,F,F,T,"0",T,T,T,T,T,T,T,T,T,T,T,T,F,23.0059843,120.2250601,"67000340019",重興里
"16737",臺南市,臺南市永康區,"1","20000",T,"1693",F,1300.54,電梯大樓,整層住家,F,"2","5","3",16.68,T,T,T,T,T,T,T,T,T,T,T,T,T,F,不限,T,T,T,"2",T,T,T,F,T,T,T,T,T,T,F,F,F,23.0098513,120.2666958,"67000310012",大灣里
"16928",臺南市,臺南市永康區,"1","5000",F,"0",F,500,透天,獨立套房,F,"1","3","2",10,T,T,T,F,T,T,T,F,T,T,T,T,T,F,不限,T,T,T,"0",T,T,T,T,T,T,F,T,T,T,T,F,F,23.0118182,120.2463055,"67000310020",復國里
"16990",臺南市,臺南市安平區,"2","18000",T,"1400",T,682.858,電梯大樓,整層住家,F,"10","14","4",28.41,T,T,T,T,T,T,T,F,T,T,T,T,T,F,不限,T,F,T,"0",T,T,T,T,T,T,T,T,F,T,F,F,T,22.9863825,120.1665044,"67000360011",育平里
"17022",臺南市,臺南市東區,"1","5200",F,"0",F,1040,電梯大樓,獨立套房,F,"8","12","4",5,T,T,T,T,T,T,T,T,T,T,F,T,T,F,不限,F,F,T,"0",T,T,T,T,T,T,T,T,T,T,F,F,F,22.9879342,120.2177536,"67000320010",中西里
"17046",臺南市,臺南市北區,"1","5000",F,"0",F,833.333,電梯大樓,獨立套房,F,"5","5","0",6,T,T,T,T,T,T,T,T,T,T,F,T,T,T,限女,F,F,T,"0",T,T,T,T,T,T,F,T,T,T,F,F,F,23.0044177,120.2217736,"67000340008",仁愛里
"17169",臺南市,臺南市永康區,"1","5500",F,"0",F,785.714,透天,分租套房,F,"3","4","1",7,T,F,T,F,F,T,F,F,T,T,T,F,T,F,不限,F,F,T,"1",T,T,T,T,T,T,T,T,T,T,T,T,F,23.0412991,120.2357573,"67000310029",塩洲里
"17208",臺南市,臺南市永康區,"1","5500",F,"0",F,687.5,透天,分租套房,F,"3","5","2",8,T,F,T,F,F,T,T,T,T,T,T,T,T,F,不限,F,F,T,"2",T,T,T,T,T,T,F,T,T,T,T,T,F,23.005263,120.2575708,"67000310016",崑山里
"17230",臺南市,臺南市北區,"2","5500",F,"0",F,785.714,透天,獨立套房,F,"4","5","1",7,T,F,T,F,F,T,T,T,T,T,T,T,T,T,限女,T,F,T,"2",T,T,T,T,T,T,F,F,T,F,T,F,T,23.0037658,120.2250177,"67000340019",重興里
"17302",臺南市,臺南市北區,"1","6000",F,"0",F,800,透天,獨立套房,F,"2","2","0",7.5,T,F,T,F,F,T,T,T,T,T,F,T,T,F,不限,F,F,F,"0",T,T,T,T,T,T,T,T,T,T,T,T,F,23.0061676,120.2200928,"67000340007",振興里
"17406",臺南市,臺南市東區,"2","23000",F,"0",T,672.515,電梯大樓,整層住家,F,"2","9","7",34.2,T,T,T,T,T,T,T,T,T,T,T,T,T,F,不限,T,F,T,"2",T,T,T,F,T,T,T,T,T,T,F,F,F,22.9976205,120.2168672,"67000320037",成大里
"17630",臺南市,臺南市中西區,"1","7000",F,"0",F,777.778,電梯大樓,獨立套房,F,"11","13","2",9,T,T,T,T,T,T,T,T,T,T,F,F,T,F,不限,T,F,T,"2",T,T,T,T,T,T,T,T,T,T,F,F,F,22.981444,120.1989698,"67000330004",大成里
"17651",臺南市,臺南市東區,"1","23000",F,"0",T,672.515,電梯大樓,整層住家,F,"2","9","7",34.2,T,T,T,T,T,T,T,T,T,T,F,T,T,F,不限,T,F,T,"2",T,T,T,T,T,T,T,T,T,T,F,F,F,22.9953985,120.2181085,"67000320037",成大里
"17710",臺南市,臺南市東區,"1","4500",F,"0",F,562.5,公寓,獨立套房,F,"2","5","3",8,T,T,T,T,T,T,T,T,T,T,T,T,T,F,不限,T,F,F,"1",T,T,T,T,T,T,F,T,T,T,F,T,F,22.9730237,120.2169503,"67000320028",大福里
"17755",臺南市,臺南市中西區,"1","18500",F,"0",F,462.5,透天,整層住家,F,"3","4","1",40,T,T,T,T,T,T,T,T,T,T,T,T,T,F,不限,T,T,T,"0",T,T,T,F,T,T,T,T,T,T,F,F,T,22.9951534,120.2034572,"67000370040",南美里
"17880",臺南市,臺南市中西區,"1","22000",F,"0",T,481.822,電梯大樓,整層住家,F,"2","7","5",45.66,T,T,T,T,T,T,T,T,T,F,F,T,T,F,不限,T,T,T,"2",T,T,T,T,T,T,T,T,T,T,F,F,F,22.9983746,120.2067563,"67000340051",北華里
"17886",臺南市,臺南市永康區,"1","4700",F,"0",F,940,透天,分租套房,F,"1","2","1",5,T,T,T,T,T,T,T,F,T,T,F,F,T,F,不限,F,F,T,"2",F,F,F,F,T,F,F,T,F,F,F,F,F,23.0305916,120.2512479,"67000310038",正強里
"17895",臺南市,臺南市東區,"1","14500",F,"0",F,439.394,公寓,整層住家,F,"2","5","3",33,T,T,T,T,T,T,T,T,T,T,T,T,T,F,不限,T,F,T,"0",T,T,T,T,T,T,T,T,T,T,F,F,F,22.9872833,120.2127804,"67000320038",大同里
"18053",臺南市,臺南市北區,"1","6000",F,"0",F,750,公寓,分租套房,F,"5","5","0",8,T,F,F,F,F,T,T,T,T,T,F,T,T,T,限女,T,T,T,"0",T,T,T,T,T,T,T,T,T,T,T,T,T,23.0031676,120.2220906,"67000340008",仁愛里
"18063",臺南市,臺南市東區,"2","18800",T,"1920",T,752.36,電梯大樓,整層住家,F,"5","9","4",27.54,T,T,T,T,T,T,T,T,T,T,T,T,T,F,不限,T,T,T,"1",T,F,F,F,T,T,T,F,T,F,F,F,T,22.973065,120.2269978,"67000320032",崇德里
"18068",臺南市,臺南市中西區,"2","9000",T,"560",F,956,電梯大樓,獨立套房,F,"14","20","6",10,T,T,T,T,T,T,T,T,T,T,T,T,T,F,不限,F,F,T,"1",T,T,T,T,T,T,T,T,T,T,F,F,F,22.9980687,120.2063226,"67000370005",赤嵌里
"18110",臺南市,臺南市永康區,"1","33800",F,"0",T,827.417,電梯大樓,整層住家,F,"14","16","2",40.85,T,T,T,T,T,T,T,T,T,T,T,T,T,F,不限,T,F,T,"2",T,T,T,T,T,T,T,T,T,T,F,F,T,23.0224992,120.2378864,"67000310033",東橋里
"18120",臺南市,臺南市南區,"1","6700",F,"0",F,957.143,電梯大樓,獨立套房,F,"6","8","2",7,T,F,T,F,F,T,T,T,T,T,T,T,T,F,不限,F,F,T,"2",T,T,T,T,T,T,T,T,T,T,T,T,F,22.985853,120.189951,"67000330027",文華里
"18124",臺南市,臺南市中西區,"1","6200",F,"0",F,885.714,電梯大樓,分租套房,F,"7","12","5",7,T,F,T,F,F,T,T,T,T,T,T,T,T,F,不限,F,F,T,"2",T,T,T,T,T,T,T,T,T,T,T,T,F,22.994485,120.193377,"67000370045",淺草里
"18221",臺南市,臺南市永康區,"1","8000",F,"0",F,1000,透天,獨立套房,F,"3","5","2",8,T,F,T,F,T,T,T,F,T,F,F,T,T,F,不限,F,F,F,"0",T,T,T,T,T,T,T,T,T,T,T,F,F,23.0179565,120.2243719,"67000310035",西橋里
"18265",臺南市,臺南市永康區,"1","9000",T,"500",F,527.778,電梯大樓,整層住家,F,"7","7","0",18,T,T,T,T,T,T,T,F,T,T,F,T,F,F,不限,F,F,F,"0",T,F,F,F,F,T,T,F,T,T,F,F,F,23.0128821,120.22713,"67000310035",西橋里
"18315",臺南市,臺南市永康區,"1","11000",F,"0",F,625,透天,獨立套房,F,"2","4","2",15,T,T,T,F,F,T,T,F,T,T,T,T,T,F,不限,F,F,T,"0",T,T,T,T,T,T,F,T,T,T,T,T,F,23.0327442,120.2600223,"67000310041",龍埔里
"18373",臺南市,臺南市北區,"1","28000",T,"2500",T,803.689,電梯大樓,整層住家,F,"18","23","5",37.95,T,T,T,T,T,T,T,T,T,T,F,T,T,F,不限,T,T,T,"2",T,T,T,T,T,T,T,T,T,T,F,F,T,23.0039189,120.2008394,"67000340020",和順里
"18456",臺南市,臺南市北區,"1","18888",T,"1180",F,765.078,電梯大樓,整層住家,F,"23","24","1",26.2,T,T,T,T,F,T,T,F,T,T,F,T,T,F,不限,T,F,T,"2",T,T,T,T,T,T,T,T,T,T,F,T,T,23.0094361,120.2219677,"67000340001",開元里
"18464",臺南市,臺南市南區,"1","7000",F,"0",T,583.333,透天,獨立套房,F,"3","3","0",12,T,T,T,F,F,T,T,T,T,T,T,T,T,F,不限,F,F,T,"0",T,T,T,T,T,T,F,T,T,T,T,T,F,22.9800589,120.1977999,"67000330004",大成里
"18465",臺南市,臺南市南區,"1","5000",F,"0",F,625,透天,獨立套房,F,"2","3","1",8,T,T,T,F,F,T,T,T,T,T,T,T,F,F,不限,F,F,T,"0",T,T,T,T,T,T,F,T,T,T,T,T,F,22.980734,120.198475,"67000330004",大成里
"18466",臺南市,臺南市南區,"1","6000",F,"0",F,600,透天,獨立套房,F,"2","4","2",10,T,T,T,F,F,T,T,T,T,F,T,T,F,F,不限,F,F,T,"0",T,F,T,T,T,T,F,T,T,T,T,T,F,22.9823541,120.194508,"67000330005",廣州里
"18471",臺南市,臺南市永康區,"1","6500",F,"0",F,812.5,電梯大樓,獨立套房,F,"5","5","0",8,T,T,T,F,F,T,T,F,T,T,T,T,T,F,不限,T,F,T,"0",T,T,T,T,T,T,T,T,T,T,T,T,F,23.0027374,120.2551752,"67000310016",崑山里
"18519",臺南市,臺南市永康區,"1","15000",T,"1100",F,670.833,電梯大樓,整層住家,F,"7","7","0",24,T,T,T,T,T,F,F,F,T,T,F,F,T,F,不限,T,F,T,"2",T,T,T,T,T,T,T,T,T,T,F,F,T,23.0355781,120.237747,"67000310010",塩行里
"18562",臺南市,臺南市安平區,"2","32000",F,"0",T,728.432,電梯大樓,整層住家,F,"23","23","0",43.93,T,T,T,T,T,T,T,F,T,F,F,F,T,F,不限,T,T,T,"2",T,T,T,T,T,T,T,T,T,T,F,F,F,22.9903152,120.1671877,"67000360011",育平里
"18563",臺南市,臺南市永康區,"1","3200",F,"0",F,1066.67,電梯大樓,雅房,F,"3","5","2",3,T,T,T,F,T,T,T,T,T,T,T,T,T,T,限男,F,F,T,"0",T,T,T,F,T,T,F,T,T,T,T,F,F,23.010009,120.236533,"67000310001",五王里
"18580",臺南市,臺南市永康區,"1","3800",T,"500",F,716.667,電梯大樓,獨立套房,F,"2","6","4",6,T,T,T,T,T,T,T,T,T,T,F,T,T,F,不限,F,F,T,"0",T,T,T,T,T,T,T,T,T,T,T,T,F,23.0021825,120.2613851,"67000310015",南灣里
"18781",臺南市,臺南市中西區,"1","5000",T,"350",F,891.667,電梯大樓,獨立套房,F,"1","8","7",6,T,T,T,T,T,F,T,T,F,F,F,F,T,F,不限,F,F,T,"0",T,T,F,F,T,T,F,F,T,T,F,F,F,22.9895484,120.1993321,"67000370042",小西門里
"18859",臺南市,臺南市東區,"1","6700",F,"0",F,1116.67,透天,獨立套房,F,"2","3","1",6,T,T,T,F,T,T,T,F,T,T,T,T,T,F,不限,F,F,T,"0",T,T,T,T,T,T,F,T,T,T,T,F,F,22.9871302,120.2232339,"67000320009",新東里
"18894",臺南市,臺南市安平區,"1","23000",T,"1991",F,661.138,電梯大樓,整層住家,F,"5","26","21",37.8,T,T,T,T,T,T,T,T,T,T,T,T,T,F,不限,T,F,T,"0",T,T,F,F,T,T,T,F,T,F,F,F,F,22.9836965,120.1685899,"67000360010",國平里
"18901",臺南市,臺南市北區,"1","3700",F,"0",F,1233.33,電梯大樓,雅房,F,"4","10","6",3,T,T,T,F,F,T,T,T,T,T,T,T,T,T,限女,T,F,F,"0",T,T,T,T,T,T,F,T,T,T,T,T,F,23.000824,120.2115122,"67000340033",公園里
"18953",臺南市,臺南市東區,"1","12000",T,"1512",F,402.382,電梯大樓,整層住家,F,"4","8","4",33.58,T,T,T,T,T,T,T,T,T,T,T,T,T,F,不限,T,T,T,"2",F,F,F,F,T,T,F,T,F,F,F,F,T,22.971985,120.228363,"67000320035",崇成里
"18967",臺南市,臺南市東區,"1","6500",F,"0",F,812.5,透天,整層住家,F,"2","5","3",8,T,F,T,F,F,F,T,T,T,T,F,F,T,F,不限,T,F,T,"2",T,T,F,T,T,T,F,T,T,T,T,T,F,22.9733348,120.2170688,"67000320028",大福里
"18989",臺南市,臺南市永康區,"1","20000",F,"0",T,530.926,電梯大樓,整層住家,F,"8","14","6",37.67,T,T,T,T,T,T,T,F,T,T,F,F,T,F,不限,T,F,T,"2",T,T,T,F,T,T,T,T,T,T,F,F,T,23.0169213,120.2267827,"67000310034",安康里
"19050",臺南市,臺南市北區,"1","24800",T,"2600",T,1128.04,電梯大樓,整層住家,F,"5","14","9",24.29,T,T,T,T,T,T,T,F,T,T,F,F,T,F,不限,T,F,T,"2",T,T,T,T,T,T,T,T,T,T,F,F,F,23.021005,120.2071136,"67000340024",成功里
"19210",臺南市,臺南市中西區,"1","8500",T,"600",T,758.333,電梯大樓,獨立套房,F,"18","18","0",12,T,T,T,T,T,T,T,T,T,T,F,T,T,F,不限,T,T,F,"0",T,T,T,T,T,T,T,T,T,T,F,F,T,22.9947319,120.194046,"67000370045",淺草里
"19211",臺南市,臺南市安南區,"1","4500",F,"0",F,1125,透天,獨立套房,F,"3","3","0",4,T,F,T,F,F,T,T,T,T,T,T,T,T,F,不限,F,F,T,"0",T,T,T,T,T,T,F,T,T,T,T,T,F,23.0220385,120.1919811,"67000350042",幸福里
"19288",臺南市,臺南市北區,"1","3500",F,"0",F,700,透天,分租套房,F,"1","3","2",5,T,F,T,F,F,T,T,T,T,T,T,T,T,F,不限,T,F,T,"0",T,T,T,T,T,T,F,T,T,T,T,T,F,23.005369,120.22004,"67000340008",仁愛里
"19346",臺南市,臺南市中西區,"1","5000",F,"0",F,1111.11,透天,獨立套房,F,"3","5","2",4.5,T,F,T,F,F,T,T,T,T,T,T,T,T,F,不限,F,F,T,"0",T,T,T,T,T,T,F,T,T,T,T,T,F,22.9828122,120.1968109,"67000330006",新昌里
"19358",臺南市,臺南市北區,"1","16000",F,"0",T,615.385,電梯大樓,整層住家,F,"10","10","0",26,T,T,T,T,T,T,T,F,T,T,T,T,T,F,不限,T,F,T,"2",T,T,T,T,T,T,T,T,T,T,F,F,T,23.0096892,120.2150639,"67000340048",大光里
"19454",臺南市,臺南市東區,"1","22500",T,"2500",T,961.538,電梯大樓,整層住家,F,"7","8","1",26,T,T,T,T,T,T,T,T,T,T,F,T,T,F,不限,T,F,F,"0",T,T,T,F,T,T,F,T,F,F,F,F,T,22.9619008,120.2347678,"67000320003",大智里
"19488",臺南市,臺南市永康區,"1","23000",F,"0",F,884.615,電梯大樓,整層住家,F,"2","14","12",26,T,T,T,T,T,T,T,T,T,T,F,T,T,F,不限,T,F,T,"0",F,F,F,F,T,T,F,T,F,T,F,F,T,23.0063821,120.2429534,"67000310020",復國里
"19510",臺南市,臺南市安平區,"1","25500",T,"2414",T,588.903,電梯大樓,整層住家,F,"7","26","19",47.4,T,T,T,T,T,T,T,T,T,T,T,T,T,F,不限,T,F,T,"2",T,T,T,T,T,T,T,T,T,T,F,F,T,22.9851429,120.1707671,"67000360010",國平里
"19512",臺南市,臺南市安平區,"1","25500",T,"2293",T,601.971,電梯大樓,整層住家,F,"8","26","18",46.17,T,T,T,T,T,T,T,T,T,T,T,T,T,F,不限,T,F,T,"2",T,T,T,T,T,T,T,T,T,T,F,F,T,22.9851429,120.1707671,"67000360010",國平里
"19608",臺南市,臺南市永康區,"1","5000",F,"0",F,1000,透天,獨立套房,F,"3","4","1",5,T,F,T,F,F,T,F,F,T,T,F,F,T,F,不限,F,F,T,"1",T,T,T,T,T,T,F,F,T,T,T,T,F,23.000882,120.254647,"67000310016",崑山里
"19634",臺南市,臺南市永康區,"1","20000",F,"0",T,1014.2,電梯大樓,整層住家,F,"3","5","2",19.72,T,T,T,T,T,F,T,F,T,F,T,F,T,F,不限,T,F,F,"2",F,F,F,F,T,T,F,F,F,F,F,F,F,23.0228995,120.2615605,"67000310003",永康里
"19637",臺南市,臺南市東區,"2","6600",F,"0",F,1150,透天,獨立套房,F,"5","11","6",5,T,T,T,F,F,T,T,T,T,T,T,T,T,F,不限,F,T,T,"0",T,T,T,T,T,T,F,T,T,T,T,T,F,22.9874791,120.2174004,"67000320036",東門里
"19651",臺南市,臺南市北區,"1","20000",F,"0",F,1039.5,公寓,整層住家,F,"9","24","15",19.24,T,T,T,T,T,T,F,T,T,T,T,T,T,F,不限,T,F,T,"2",T,T,T,T,T,T,T,T,T,T,F,F,T,23.0094361,120.2219677,"67000340001",開元里
"19694",臺南市,臺南市北區,"2","15000",F,"0",F,821.018,電梯大樓,整層住家,F,"8","18","10",18.27,T,T,T,T,T,T,T,T,T,F,T,T,T,F,不限,T,T,T,"2",T,F,F,F,T,T,F,T,T,T,F,F,F,23.001697,120.2024731,"67000340054",立人里
"19808",臺南市,臺南市東區,"1","13000",T,"2000",F,625,電梯大樓,整層住家,F,"2","12","10",24,T,T,T,T,T,T,T,T,T,T,F,F,T,F,不限,T,F,T,"2",T,T,T,F,T,T,T,T,T,F,F,F,T,22.9752624,120.2367089,"67000320014",和平里
"19823",臺南市,臺南市北區,"1","23000",F,"0",F,487.391,電梯大樓,整層住家,F,"5","24","19",47.19,T,T,T,T,T,T,T,T,T,T,T,T,T,F,不限,T,F,T,"2",T,T,T,T,T,T,T,T,T,T,F,F,T,23.0084206,120.2215876,"67000340001",開元里
"19843",臺南市,臺南市南區,"1","9700",F,"0",F,881.818,公寓,獨立套房,F,"5","5","0",11,T,T,T,F,T,T,T,T,T,T,T,T,T,T,限女,F,F,T,"0",T,T,T,F,T,T,T,T,T,T,T,F,F,22.9794447,120.2089481,"67000330001",竹溪里
"19911",臺南市,臺南市安南區,"1","17000",F,"0",T,425,透天,整層住家,F,"2","2","0",40,T,T,T,T,T,T,F,F,T,T,F,F,T,F,不限,T,F,F,"0",T,T,T,F,T,T,T,F,T,F,F,F,F,23.025004,120.210195,"67000350039",溪頂里
"19947",臺南市,臺南市永康區,"1","5000",F,"0",F,1000,透天,獨立套房,F,"3","5","2",5,T,T,T,T,T,T,F,F,F,F,F,F,T,F,不限,F,F,T,"1",T,T,T,T,T,T,F,T,T,T,T,T,F,22.9976461,120.2541558,"67000310016",崑山里
"20000",臺南市,臺南市中西區,"2","7500",F,"0",F,750,電梯大樓,獨立套房,F,"4","5","1",10,T,F,T,T,T,T,T,T,T,T,T,T,T,T,限女,F,F,T,"2",T,T,T,T,T,T,F,T,T,T,T,T,T,23.0052188,120.1815103,"67000370033",西湖里
"20065",臺南市,臺南市永康區,"2","20000",F,"0",T,1000,電梯大樓,整層住家,F,"8","8","0",20,T,T,T,T,T,T,T,F,T,T,T,T,T,F,不限,T,F,T,"1",T,T,T,F,T,T,T,T,T,T,F,F,T,23.0248184,120.2570964,"67000310003",永康里
"20191",臺南市,臺南市永康區,"1","4500",F,"0",T,900,透天,獨立套房,F,"2","5","3",5,T,T,T,F,T,T,F,F,T,F,T,T,T,F,不限,F,F,T,"0",T,T,T,T,T,T,F,T,T,T,T,T,F,23.0187602,120.2185178,"67000310011",甲頂里
"20225",臺南市,臺南市東區,"1","7800",F,"0",F,650,電梯大樓,獨立套房,F,"2","8","6",12,T,T,T,F,F,F,T,F,T,T,T,T,T,F,不限,F,T,T,"0",T,T,T,T,T,T,F,T,T,T,T,T,F,22.9698211,120.235365,"67000320006",仁和里
"20267",臺南市,臺南市北區,"1","9000",F,"0",F,900,透天,獨立套房,F,"1","3","2",10,T,F,T,F,F,F,T,T,T,T,T,T,T,F,不限,T,F,T,"0",T,T,T,T,T,T,T,T,T,T,T,T,F,23.0177183,120.2163492,"67000340046",北門里
"20340",臺南市,臺南市中西區,"1","26000",F,"0",F,363.636,電梯大樓,整層住家,F,"6","6","0",58,T,T,T,T,T,T,F,F,T,T,F,T,T,F,不限,T,T,F,"0",T,T,T,T,T,T,T,T,T,T,F,T,T,22.9969357,120.1936761,"67000370022",藥王里
"20402",臺南市,臺南市中西區,"1","7000",F,"0",F,875,公寓,分租套房,F,"4","4","0",8,T,F,T,F,F,F,F,F,T,T,T,F,T,F,不限,F,F,T,"1",T,T,T,T,T,T,F,T,T,T,T,T,F,23.0067221,120.192007,"67000340018",大豐里
"20451",臺南市,臺南市北區,"1","18000",F,"0",F,413.223,電梯大樓,整層住家,F,"20","24","4",43.6,T,T,T,T,T,T,T,T,T,T,T,T,T,F,不限,T,F,T,"2",F,F,F,F,T,T,F,F,F,F,F,F,T,23.0030975,120.2021332,"67000340020",和順里
"20468",臺南市,臺南市東區,"1","13800",F,"0",F,1533.33,公寓,獨立套房,F,"4","4","0",9,F,F,T,F,F,T,T,T,T,F,F,T,T,F,不限,F,F,T,"0",T,T,T,T,T,T,T,T,T,T,T,T,F,22.9954344,120.2146661,"67000320037",成大里
"20487",臺南市,臺南市東區,"2","4900",F,"0",F,980,電梯大樓,獨立套房,F,"2","7","5",5,T,T,T,T,T,T,T,T,T,T,T,T,T,F,不限,F,F,T,"2",T,T,T,F,F,T,F,F,T,T,F,F,F,22.9868517,120.2216184,"67000320011",東安里
"20490",臺南市,臺南市東區,"1","8000",F,"0",F,1000,透天,獨立套房,F,"4","5","1",8,T,T,T,T,T,T,T,T,T,T,T,T,T,F,不限,F,F,T,"2",T,T,F,F,T,T,T,F,F,F,T,F,F,22.991466,120.21417,"67000320021",圍下里
"20491",臺南市,臺南市永康區,"2","21000",T,"2250",T,775,電梯大樓,整層住家,F,"11","18","7",30,T,T,T,T,T,T,T,T,T,T,T,T,T,F,不限,F,F,T,"2",T,T,T,F,T,T,T,F,T,F,F,F,T,22.9983913,120.2332823,"67000320027",莊敬里
"20525",臺南市,臺南市北區,"2","10000",F,"0",F,909.091,透天,獨立套房,F,"3","3","0",11,T,T,T,F,F,T,T,T,T,T,T,T,T,F,不限,F,F,T,"2",T,T,T,T,T,T,T,F,T,T,T,T,T,23.0151681,120.1937202,"67000340025",文元里
"20540",臺南市,臺南市安平區,"1","38000",F,"0",F,1651.46,電梯大樓,整層住家,F,"26","29","3",23.01,T,T,T,T,T,T,T,F,T,F,T,F,T,F,不限,T,T,T,"2",T,T,T,T,T,T,T,T,T,T,F,F,T,22.9900901,120.1789499,"67000360009",文平里
"20640",臺南市,臺南市北區,"2","30000",T,"3000",T,1178.57,電梯大樓,整層住家,F,"14","22","8",28,T,T,T,T,T,T,T,T,T,T,T,T,T,F,不限,T,F,T,"2",T,F,F,T,T,T,T,F,F,T,F,F,T,23.0082187,120.186031,"67000340018",大豐里
"20646",臺南市,臺南市北區,"1","80000",F,"0",T,1379.31,電梯大樓,整層住家,F,"10","21","11",58,T,T,T,T,T,T,T,T,T,T,T,T,T,F,不限,T,F,T,"2",T,T,T,T,T,T,T,T,T,T,F,F,T,23.0145444,120.2075125,"67000340053",福德里
"20648",臺南市,臺南市安平區,"1","30000",T,"5700",T,714,電梯大樓,整層住家,F,"6","13","7",50,T,T,T,T,T,T,T,T,T,T,T,T,T,F,不限,T,F,T,"2",T,T,T,T,T,T,T,T,T,T,F,F,T,22.9991073,120.1743479,"67000360015",平安里
"20649",臺南市,臺南市安平區,"1","80000",T,"12000",T,766.667,電梯大樓,整層住家,F,"5","25","20",120,T,T,T,T,T,T,T,T,T,T,T,T,T,F,不限,T,F,T,"2",T,T,T,T,T,T,T,T,T,T,F,F,T,22.9929715,120.1663921,"67000360008",平通里
"20652",臺南市,臺南市安平區,"1","60000",F,"0",T,1500,電梯大樓,整層住家,F,"18","24","6",40,T,T,T,T,T,T,T,T,T,T,T,T,T,F,不限,T,F,T,"2",T,T,T,T,T,T,T,T,T,T,F,F,T,22.9898313,120.1742046,"67000360010",國平里
"20653",臺南市,臺南市永康區,"1","18000",T,"1320",F,1136.47,電梯大樓,整層住家,F,"3","19","16",17,T,T,T,T,T,T,T,T,T,T,T,T,T,F,不限,T,F,T,"2",T,T,T,T,T,T,T,T,T,T,F,F,T,22.9984159,120.2333069,"67000320027",莊敬里
"20706",臺南市,臺南市中西區,"1","35000",T,"3500",T,1283.33,電梯大樓,整層住家,F,"8","13","5",30,T,T,T,T,T,T,T,T,T,T,T,T,T,F,不限,T,F,T,"2",T,T,T,T,T,T,T,T,T,T,F,F,T,23.0012613,120.1967382,"67000340054",立人里
"20714",臺南市,臺南市安平區,"1","21000",F,"0",T,1400,電梯大樓,整層住家,F,"8","23","15",15,T,T,T,T,T,T,T,T,T,T,T,T,T,F,不限,T,F,T,"2",T,T,T,F,T,T,T,T,T,T,F,F,T,22.9852819,120.1702867,"67000360010",國平里
"20763",臺南市,臺南市永康區,"2","24000",F,"0",T,320,透天,整層住家,F,"0","3","3",75,T,T,T,T,T,T,T,T,T,T,T,T,T,F,不限,T,F,T,"2",F,F,F,F,T,T,F,F,F,F,F,F,F,23.002103,120.24593,"67000310020",復國里
"20886",臺南市,臺南市南區,"1","23800",F,"0",F,1190,電梯大樓,整層住家,F,"8","14","6",20,T,T,T,T,T,T,T,T,T,T,T,T,T,F,不限,T,F,T,"2",T,T,T,T,T,T,T,T,T,T,F,F,T,22.9774717,120.199716,"67000330004",大成里
"20902",臺南市,臺南市永康區,"1","6200",F,"0",T,1377.78,透天,獨立套房,F,"4","6","2",4.5,T,F,T,F,F,T,T,T,T,T,T,T,T,F,不限,F,F,T,"0",T,F,T,T,T,T,T,T,T,T,T,T,F,23.0233623,120.2234209,"67000310036",尚頂里
"20917",臺南市,臺南市安平區,"1","39000",T,"3100",F,1107.89,電梯大樓,整層住家,F,"13","21","8",38,T,T,T,T,T,T,T,T,T,T,T,T,T,F,不限,T,F,T,"2",T,T,T,T,T,T,T,T,T,T,F,F,T,22.987948,120.1777053,"67000360010",國平里
"21033",臺南市,臺南市安平區,"1","21000",F,"0",F,750,電梯大樓,整層住家,F,"7","14","7",28,T,T,T,T,T,T,T,F,T,F,T,F,T,F,不限,T,T,T,"2",T,T,T,T,T,T,T,T,T,T,F,F,T,22.9922606,120.1681159,"67000360008",平通里
"21035",臺南市,臺南市北區,"1","19000",F,"0",F,1304.05,電梯大樓,整層住家,F,"13","24","11",14.57,T,T,T,T,T,T,T,T,T,T,T,T,T,F,不限,T,F,T,"2",T,T,T,T,T,T,T,T,T,T,F,F,T,23.0092802,120.2228601,"67000340001",開元里
"21052",臺南市,臺南市北區,"1","19000",T,"2500",F,551.282,電梯大樓,整層住家,F,"1","13","12",39,T,T,T,T,T,T,T,T,T,T,T,T,T,F,不限,T,F,T,"1",T,T,T,T,T,T,T,T,T,T,F,F,T,23.0182311,120.2090807,"67000340024",成功里
"21137",臺南市,臺南市中西區,"1","5500",T,"500",F,1000,電梯大樓,獨立套房,F,"5","7","2",6,T,T,T,T,T,T,T,T,T,F,F,F,T,F,不限,F,F,T,"0",T,T,T,T,T,T,F,T,T,T,F,F,F,22.9933158,120.1907636,"67000370031",大涼里
"21147",臺南市,臺南市北區,"1","22000",F,"0",T,1470.59,電梯大樓,整層住家,F,"22","24","2",14.96,T,T,T,T,T,T,T,T,T,T,T,T,T,F,不限,T,F,T,"2",T,T,T,T,T,T,T,T,T,T,F,F,T,23.0068431,120.2200101,"67000340007",振興里
"21231",臺南市,臺南市東區,"2","4800",T,"260",F,784.496,公寓,獨立套房,F,"2","5","3",6.45,T,T,T,T,T,T,F,F,T,T,F,F,F,F,不限,F,F,T,"2",T,T,T,T,T,T,F,T,T,T,F,F,F,22.986414,120.235094,"67000320034",東聖里
"21275",臺南市,臺南市永康區,"2","18000",F,"0",T,470.342,電梯大樓,整層住家,F,"15","16","1",38.27,T,T,T,T,T,T,T,T,T,T,T,T,F,F,不限,T,T,T,"2",T,T,T,T,T,T,T,T,T,T,F,F,T,23.008462,120.232492,"67000310031",六合里
"21422",臺南市,臺南市東區,"1","20000",T,"1250",T,664.062,電梯大樓,整層住家,F,"1","7","6",32,T,T,T,T,T,T,T,T,T,T,T,T,T,F,不限,T,F,T,"1",T,T,T,T,T,F,T,F,T,T,F,F,F,22.9853696,120.2124147,"67000320038",大同里
"21427",臺南市,臺南市東區,"1","25000",F,"0",F,555.556,透天,整層住家,F,"5","6","1",45,T,T,T,T,T,T,T,T,T,T,T,T,T,F,不限,T,F,T,"1",T,T,T,T,T,T,T,T,T,T,F,F,F,22.9654773,120.2366932,"67000320026",德高里
"21506",臺南市,臺南市安南區,"1","6500",F,"0",F,1083.33,透天,獨立套房,F,"2","2","0",6,T,T,T,T,T,T,T,F,T,T,T,T,F,F,不限,F,F,T,"0",T,T,T,T,T,T,F,T,T,T,T,T,F,23.0264676,120.2110477,"67000350038",溪北里
"21544",臺南市,臺南市永康區,"2","7400",F,"0",T,569.231,透天,獨立套房,F,"4","4","0",13,T,T,T,T,T,T,T,F,T,T,F,T,T,F,不限,F,F,F,"1",T,T,T,T,T,T,F,T,T,T,T,T,F,23.0183983,120.2246422,"67000310035",西橋里
"21608",臺南市,臺南市北區,"2","10000",T,"800",F,533.597,電梯大樓,整層住家,F,"7","7","0",20.24,T,T,T,T,T,T,T,F,T,T,F,F,T,F,不限,T,T,T,"0",F,F,F,F,T,T,F,F,F,F,F,F,F,23.0125895,120.2230209,"67000340038",元寶里
"21756",臺南市,臺南市東區,"1","6800",F,"0",F,850,透天,獨立套房,F,"2","4","2",8,T,T,F,F,F,T,T,T,T,T,T,T,T,F,不限,T,F,T,"0",T,T,T,T,T,T,T,T,T,T,T,T,T,22.9868418,120.2162862,"67000320005",泉南里
"21762",臺南市,臺南市安南區,"1","27000",F,"0",T,490.909,透天,整層住家,F,"0","4","4",55,T,T,T,T,T,T,T,T,T,T,T,T,T,F,不限,T,F,T,"0",F,F,F,F,T,T,F,F,F,F,F,F,F,23.0388408,120.1827008,"67000350016",海西里
"21784",臺南市,臺南市東區,"1","5700",F,"0",F,814.286,透天,獨立套房,F,"2","3","1",7,T,F,T,F,F,F,F,T,T,F,F,F,T,T,限女,F,F,T,"0",T,T,T,T,T,T,F,T,T,T,T,T,F,22.9881508,120.2270639,"67000320009",新東里
"21804",臺南市,臺南市北區,"2","4500",F,"0",F,750,透天,獨立套房,F,"2","3","1",6,T,F,T,F,T,T,T,T,T,T,T,T,T,F,不限,F,F,T,"2",T,T,T,T,T,T,F,T,T,T,T,F,F,23.0057449,120.2213073,"67000340007",振興里
"21846",臺南市,臺南市東區,"1","7000",F,"0",F,1166.67,透天,獨立套房,F,"3","4","1",6,T,F,T,F,T,T,T,T,T,F,F,F,T,F,不限,F,F,T,"0",T,T,T,T,T,T,F,T,F,T,T,F,F,22.9928271,120.2147198,"67000320037",成大里
"21929",臺南市,臺南市永康區,"2","4900",F,"0",F,612.5,透天,獨立套房,F,"2","4","2",8,T,F,T,F,F,T,T,F,T,T,T,T,T,F,不限,F,F,T,"0",T,T,T,T,T,T,F,T,T,T,T,T,F,23.0309212,120.2550789,"67000310004",埔園里
"21946",臺南市,臺南市北區,"1","5800",F,"0",F,1054.55,透天,分租套房,F,"3","4","1",5.5,T,F,T,F,F,T,T,T,T,T,T,T,T,F,不限,F,F,T,"0",T,T,T,T,T,T,F,T,T,T,T,T,F,23.006238,120.216673,"67000340044",長勝里
"21992",臺南市,臺南市永康區,"2","7700",F,"0",F,770,透天,獨立套房,F,"2","5","3",10,T,F,T,T,F,T,T,T,T,T,T,T,T,F,不限,F,T,T,"2",T,T,T,T,T,T,T,F,T,T,F,T,T,23.0128702,120.2466892,"67000310037",復華里
"21998",臺南市,臺南市永康區,"2","10000",F,"0",F,769.231,透天,獨立套房,F,"1","2","1",13,T,F,T,F,F,T,T,F,F,F,T,F,T,F,不限,F,T,T,"0",T,T,T,T,T,T,T,T,T,T,T,T,F,23.004559,120.256411,"67000310016",崑山里
"22007",臺南市,臺南市中西區,"1","4800",F,"0",F,960,透天,獨立套房,F,"2","3","1",5,T,T,T,F,F,T,T,T,T,T,F,T,T,F,不限,F,F,T,"0",T,F,T,T,T,T,F,T,T,T,T,T,F,22.9917461,120.199951,"67000370040",南美里
"22188",臺南市,臺南市東區,"1","15000",F,"0",F,532.292,電梯大樓,整層住家,F,"5","7","2",28.18,T,T,T,T,T,T,T,T,T,T,T,T,T,F,不限,T,F,T,"2",T,T,T,F,T,T,T,F,T,T,F,F,F,22.978737,120.216135,"67000320029",忠孝里
"22283",臺南市,臺南市北區,"1","6300",F,"0",F,1050,透天,獨立套房,F,"4","4","0",6,T,F,T,F,F,T,T,T,T,T,T,T,T,F,不限,F,F,T,"0",T,T,T,T,T,T,F,T,T,T,T,T,F,23.0035704,120.2240744,"67000340008",仁愛里
"22285",臺南市,臺南市東區,"2","4800",F,"0",F,960,透天,分租套房,F,"1","4","3",5,T,F,T,F,F,T,T,T,T,T,T,T,T,F,不限,F,F,T,"0",T,T,T,T,T,T,F,T,T,T,T,T,F,22.9862745,120.2323125,"67000320020",富強里
"22294",臺南市,臺南市中西區,"2","6500",F,"0",F,650,電梯大樓,獨立套房,F,"7","11","4",10,T,T,T,T,T,T,T,T,T,T,T,T,T,F,不限,T,T,F,"2",T,T,T,T,T,T,T,F,T,T,F,F,F,22.9926493,120.1936269,"67000370046",府前里
"22311",臺南市,臺南市永康區,"1","19000",F,"0",T,904.762,電梯大樓,整層住家,F,"4","10","6",21,T,T,T,T,T,T,T,F,T,T,T,T,T,F,不限,T,T,T,"0",T,T,T,T,T,T,T,T,T,T,F,F,F,23.0131518,120.2647133,"67000310040",北興里
"22349",臺南市,臺南市東區,"1","6500",F,"0",F,650,電梯大樓,整層住家,F,"6","6","0",10,T,T,T,T,T,T,T,T,T,T,T,T,T,F,不限,F,F,T,"0",T,T,T,T,T,T,T,T,T,T,F,F,F,22.9775749,120.2343636,"67000320025",虎尾里
"22366",臺南市,臺南市永康區,"1","4000",F,"0",T,615.385,透天,獨立套房,F,"3","4","1",6.5,T,T,T,F,F,T,T,T,T,T,T,T,T,F,不限,F,F,T,"0",T,T,T,T,T,T,F,T,T,T,T,T,F,23.0437404,120.2395904,"67000310043",塩興里
"22380",臺南市,臺南市永康區,"1","5300",F,"0",F,883.333,透天,獨立套房,F,"3","4","1",6,T,F,T,F,F,T,F,F,T,T,F,T,T,F,不限,F,F,T,"0",T,T,T,T,T,T,F,T,T,T,T,T,F,23.0163013,120.2254912,"67000310035",西橋里
"22410",臺南市,臺南市永康區,"1","18000",F,"0",T,593.276,電梯大樓,整層住家,F,"5","8","3",30.34,T,T,T,T,T,T,T,F,T,F,T,F,T,F,不限,T,F,T,"2",F,F,F,F,T,F,F,F,T,F,F,F,F,23.0174566,120.2610411,"67000310003",永康里
"22470",臺南市,臺南市東區,"1","4500",F,"0",F,1125,電梯大樓,分租套房,F,"7","11","4",4,T,F,T,F,F,T,T,T,T,T,T,T,T,F,不限,F,F,T,"1",T,T,T,T,T,T,F,T,T,T,T,T,F,22.9866886,120.2180862,"67000320024",龍山里
"22504",臺南市,臺南市中西區,"1","8600",F,"0",F,733.788,電梯大樓,獨立套房,F,"5","12","7",11.72,T,T,T,T,T,T,T,T,T,T,T,T,F,F,不限,T,T,T,"2",T,T,T,T,T,T,T,T,T,T,F,F,F,23.00211,120.195296,"67000340054",立人里
"22658",臺南市,臺南市東區,"1","4000",F,"0",F,800,透天,獨立套房,F,"2","4","2",5,T,F,T,F,T,T,T,T,T,T,T,T,T,T,限女,F,F,T,"0",T,T,T,T,T,T,F,T,T,T,T,F,F,22.968801,120.238174,"67000320006",仁和里
"22666",臺南市,臺南市安平區,"1","25000",F,"0",T,950.932,電梯大樓,整層住家,F,"5","23","18",26.29,T,T,T,T,T,T,T,T,T,T,T,T,T,F,不限,T,F,T,"2",T,T,T,T,T,T,T,T,T,T,F,F,T,22.9852819,120.1702867,"67000360010",國平里
"22729",臺南市,臺南市永康區,"1","4300",F,"0",F,1075,透天,獨立套房,F,"3","5","2",4,T,T,T,F,F,T,T,F,T,T,T,F,T,F,不限,F,F,T,"2",T,T,T,T,T,T,F,F,T,T,T,T,F,23.0409011,120.240326,"67000310010",塩行里
"22736",臺南市,臺南市東區,"1","5800",F,"0",F,828.571,透天,獨立套房,F,"2","2","0",7,T,T,T,T,T,T,F,F,T,F,T,F,T,F,不限,T,T,T,"0",T,T,T,T,T,T,T,T,T,T,T,T,F,22.988959,120.22202,"67000320010",中西里
"22750",臺南市,臺南市永康區,"1","16800",T,"1200",F,692.308,電梯大樓,整層住家,F,"10","10","0",26,T,T,T,T,T,T,T,T,T,T,T,T,T,F,不限,T,F,T,"2",T,T,T,F,T,T,T,T,T,T,F,F,F,23.0189752,120.259857,"67000310003",永康里
"22864",臺南市,臺南市永康區,"1","9000",F,"0",T,529.412,透天,獨立套房,F,"5","5","0",17,T,F,F,F,F,T,F,F,T,T,F,F,T,F,不限,T,F,T,"0",T,T,T,T,T,T,F,T,T,T,T,T,F,23.0366961,120.264915,"67000310027",龍潭里
"22916",臺南市,臺南市北區,"1","7500",F,"0",F,500,透天,獨立套房,F,"1","4","3",15,T,T,T,F,F,T,T,T,T,T,T,T,T,F,不限,F,F,T,"0",T,T,T,T,T,T,F,T,T,T,T,T,F,23.0135941,120.222844,"67000340001",開元里
"22943",臺南市,臺南市北區,"1","3600",F,"0",F,900,透天,獨立套房,F,"2","2","0",4,T,T,T,F,T,T,T,F,T,T,F,T,T,F,不限,F,F,T,"1",T,T,T,T,T,T,F,T,T,T,T,F,F,23.0178358,120.2187544,"67000340046",北門里
